SALE TYPE,SOLD DATE,PROPERTY TYPE,ADDRESS,CITY,STATE OR PROVINCE,ZIP OR POSTAL CODE,PRICE,BEDS,BATHS,LOCATION,SQUARE FEET,LOT SIZE,YEAR BUILT,DAYS ON MARKET,$/SQUARE FEET,HOA/MONTH,STATUS,NEXT OPEN HOUSE START TIME,NEXT OPEN HOUSE END TIME,URL (SEE https://www.redfin.com/buy-a-home/comparative-market-analysis FOR INFO ON PRICING),SOURCE,MLS#,FAVORITE,INTERESTED,LATITUDE,LONGITUDE
PAST SALE,February-22-2022,Single Family Residential,123 Jasmine Creek Dr,Corona Del Mar,CA,92625,2500000,3,2,CS - Corona Del Mar - Spyglass,1953,7056,1978,,1280,690,Sold,,,https://www.redfin.com/CA/Corona-del-Mar/123-Jasmine-Creek-Dr-92625/home/4720702,CRMLS,OC22011859,N,Y,33.6069616,-117.8653553
PAST SALE,March-31-2022,Condo/Co-op,3934 W 5th St #37,Santa Ana,CA,92703,368500,1,1,"66 - N of Blsa, S of GGrv, E of Brookhrst, W of Ha",616,,1983,,598,408,Sold,,,https://www.redfin.com/CA/Santa-Ana/3934-W-5th-St-92703/unit-37/home/5649596,CRMLS,OC22021069,N,Y,33.7483555,-117.9229924
PAST SALE,March-3-2022,Single Family Residential,135 Zion Dr,Lake Forest,CA,92630,1850000,5,4.5,LN - Lake Forest North,3106,4343,2017,,596,211,Sold,,,https://www.redfin.com/CA/Lake-Forest/135-Zion-Dr-92630/home/143912505,CRMLS,OC22010968,N,Y,33.6686433,-117.6557635
PAST SALE,July-1-2022,Condo/Co-op,4707 E Via La Paloma #4,Orange,CA,92869,787000,3,3,"72 - Orange & Garden Grove, E of Harbor, N of 22 F",1917,,1983,,411,365,Sold,,,https://www.redfin.com/CA/Orange/4707-E-Via-La-Paloma-92869/unit-4/home/103509317,CRMLS,OC22115489,N,Y,33.7840063,-117.8036387
PAST SALE,,Single Family Residential,4129 E Townsend Ave,Orange,CA,92867,1437500,4,3,,3447,10500,1990,,417,,,,,https://www.redfin.com/CA/Orange/4129-E-Townsend-Ave-92867/home/4325855,,,N,Y,33.8322801,-117.8096404
PAST SALE,May-16-2022,Single Family Residential,20 Del Carlo,Irvine,CA,92606,1325000,3,2.5,WP - Westpark,1706,2793,1994,,777,141,Sold,,,https://www.redfin.com/CA/Irvine/20-Del-Carlo-92606/home/4626153,CRMLS,OC22104180,N,Y,33.6899952,-117.8045219
PAST SALE,July-13-2021,Condo/Co-op,23 Aryshire Ln,Ladera Ranch,CA,92694,717000,3,2.5,LD - Ladera Ranch,1682,,2003,,426,384,Sold,,,https://www.redfin.com/CA/Ladera-Ranch/23-Aryshire-Ln-92694/home/5943504,CRMLS,OC21129028,N,Y,33.5531176,-117.6398075
PAST SALE,,Single Family Residential,30482 Via Festivo,San Juan Capistrano,CA,92675,2325000,3,3.5,,4130,10500,1989,,563,,,,,https://www.redfin.com/CA/San-Juan-Capistrano/30482-Via-Festivo-92675/home/4911091,,,N,Y,33.5205183,-117.651039
PAST SALE,April-15-2022,Condo/Co-op,25671 Le Parc #11,Lake Forest,CA,92630,623000,2,1.5,LN - Lake Forest North,1084,,1983,,575,418,Sold,,,https://www.redfin.com/CA/Lake-Forest/25671-Le-Parc-92630/unit-11/home/5374254,CRMLS,OC22044806,N,Y,33.6410273,-117.6804
PAST SALE,December-27-2022,Single Family Residential,3261 Colorado Ln,Costa Mesa,CA,92626,1169000,4,2,699 - Not Defined,1635,6050,1960,,715,,Sold,,,https://www.redfin.com/CA/Costa-Mesa/3261-Colorado-Ln-92626/home/3691313,CRMLS,OC22260422,N,Y,33.6898429,-117.9281793
PAST SALE,,Condo/Co-op,7 Brisa Ribera #17,Rancho Santa Margarita,CA,92688,455000,1,1,,804,,1986,,566,,,,,https://www.redfin.com/CA/Rancho-Santa-Margarita/7-Brisa-Ribera-92688/unit-17/home/5307500,,,N,Y,33.6520919,-117.5830554
PAST SALE,,Single Family Residential,6692 Mount Lowe Dr,Buena Park,CA,90620,750000,4,1.5,,1527,6000,1959,,491,,,,,https://www.redfin.com/CA/Buena-Park/6692-Mount-Lowe-Dr-90620/home/3662782,,,N,Y,33.8209737,-118.0161157
PAST SALE,March-14-2022,Single Family Residential,1 Del Cambrea,Irvine,CA,92606,1400000,3,2.5,WP - Westpark,1706,3850,1994,,821,141,Sold,,,https://www.redfin.com/CA/Irvine/1-Del-Cambrea-92606/home/4626305,CRMLS,OC22030376,N,Y,33.6892392,-117.8041651
PAST SALE,March-21-2022,Single Family Residential,27181 Huerta,Mission Viejo,CA,92692,950000,3,2,MS - Mission Viejo South,1120,7280,1975,,848,72,Sold,,,https://www.redfin.com/CA/Mission-Viejo/27181-Huerta-92692/home/5015565,CRMLS,OC22032592,N,Y,33.5666016,-117.6556684
PAST SALE,February-14-2022,Single Family Residential,26492 Bay Tree Rd,San Juan Capistrano,CA,92675,881000,4,2,JN - San Juan North,1572,3000,1972,,560,135,Sold,,,https://www.redfin.com/CA/San-Juan-Capistrano/26492-Bay-Tree-Rd-92675/home/4907488,CRMLS,OC22007346,N,Y,33.5350803,-117.6682124
PAST SALE,,Condo/Co-op,325 Placemark #92,Irvine,CA,92614,910000,2,3.5,,1783,,2019,,510,,,,,https://www.redfin.com/CA/Irvine/325-Placemark-92614/unit-92/home/173436573,,,N,Y,33.687832,-117.8525402
PAST SALE,September-14-2023,Single Family Residential,26172 Canary Ct,Lake Forest,CA,92630,1100000,3,3,LN - Lake Forest North,1662,4250,1986,,662,64,Sold,,,https://www.redfin.com/CA/Lake-Forest/26172-Canary-Ct-92630/home/4817801,CRMLS,OC23139493,N,Y,33.6563308,-117.6735317
PAST SALE,January-4-2022,Condo/Co-op,1801 E Katella Ave #3001,Anaheim,CA,92805,460000,1,1,78 - Anaheim East of Harbor,728,,2006,,632,259,Sold,,,https://www.redfin.com/CA/Anaheim/1801-E-Katella-Ave-92805/unit-3001/home/12252260,CRMLS,OC21266774,N,Y,33.8040387,-117.88993
PAST SALE,August-26-2021,Single Family Residential,196 N Willow Springs Rd,Orange,CA,92869,1287500,4,2.5,"75 - Orange, Orange Park Acres E of 55",2702,11250,1984,,476,100,Sold,,,https://www.redfin.com/CA/Orange/196-N-Willow-Springs-Rd-92869/home/4437966,CRMLS,OC21156126,N,Y,33.7895087,-117.7728217
PAST SALE,August-3-2021,Single Family Residential,16211 Kipling Cir,Westminster,CA,92683,1120000,4,3.5,"67 - S of Bolsa, E of Beach",2390,6000,1976,,469,,Sold,,,https://www.redfin.com/CA/Westminster/16211-Kipling-Cir-92683/home/3518248,CRMLS,OC21155852,N,Y,33.7272564,-117.9746172
PAST SALE,June-16-2023,Single Family Residential,20 Bahia,Irvine,CA,92614,1405000,3,2,WP - Westpark,1405,3780,1988,,1000,47,Sold,,,https://www.redfin.com/CA/Irvine/20-Bahia-92614/home/4659665,CRMLS,OC23096270,N,Y,33.6797858,-117.8205793
PAST SALE,May-27-2022,Single Family Residential,2913 Camino Capistrano #30,San Clemente,CA,92672,1100000,2,2,SN - San Clemente North,1250,43560,1963,,880,395,Sold,,,https://www.redfin.com/CA/San-Clemente/2913-Camino-Capistrano-92672/unit-30/home/5144721,CRMLS,OC22098524,N,Y,33.4448382,-117.6472201
PAST SALE,July-14-2021,Condo/Co-op,119 Mirth,Irvine,CA,92618,905000,3,3.5,GP - Great Park,1960,,2019,,462,444,Sold,,,https://www.redfin.com/CA/Irvine/119-Mirth-92618/home/173436202,CRMLS,OC21123296,N,Y,33.6940818,-117.7344181
PAST SALE,September-2-2021,Condo/Co-op,88 Greenfield #91,Irvine,CA,92614,580500,2,1.5,WB - Woodbridge,1060,,1982,,548,575,Sold,,,https://www.redfin.com/CA/Irvine/88-Greenfield-92614/unit-91/home/5573641,CRMLS,OC21162581,N,Y,33.6790288,-117.8108709
PAST SALE,April-11-2022,Single Family Residential,3641 Pine St,Irvine,CA,92606,1415000,4,3,WN - Walnut (Irvine),2277,5000,1974,,621,55,Sold,,,https://www.redfin.com/CA/Irvine/3641-Pine-St-92606/home/4675489,CRMLS,OC22058073,N,Y,33.7042364,-117.7961779
PAST SALE,June-12-2023,Single Family Residential,22351 Modina,Laguna Hills,CA,92653,1105000,4,2,S2 - Laguna Hills,1496,5750,1972,,739,,Sold,,,https://www.redfin.com/CA/Laguna-Hills/22351-Modina-92653/home/4830986,CRMLS,OC23086778,N,Y,33.6167311,-117.7393761
PAST SALE,June-3-2022,Condo/Co-op,2220 E Chapman Ave #2,Fullerton,CA,92831,705000,2,2.5,83 - Fullerton,1563,1563,1979,,451,420,Sold,,,https://www.redfin.com/CA/Fullerton/2220-E-Chapman-Ave-92831/unit-2/home/5235047,CRMLS,OC22097553,N,Y,33.8739757,-117.8917907
PAST SALE,September-30-2021,Condo/Co-op,24983 La Pantera,Laguna Niguel,CA,92677,575000,2,2,LNLAK - Lake Area,850,,1989,,676,426,Sold,,,https://www.redfin.com/CA/Laguna-Niguel/24983-La-Pantera-92677/home/5396419,CRMLS,OC21186528,N,Y,33.5536073,-117.6938681
PAST SALE,June-13-2023,Single Family Residential,29931 Happy Sparrow Ln,Laguna Niguel,CA,92677,1570000,4,3,LNSMT - Summit,2557,5355,1978,,614,69,Sold,,,https://www.redfin.com/CA/Laguna-Niguel/29931-Happy-Sparrow-Ln-92677/home/4931730,CRMLS,OC23080121,N,Y,33.5286619,-117.7218282
PAST SALE,May-23-2024,Condo/Co-op,182 Guinevere,Irvine,CA,92620,1300000,3,2.5,Garland Park (WDGP),1719,,2004,,756,381,Sold,,,https://www.redfin.com/CA/Irvine/182-Guinevere-92620/unit-65/home/12257884,CRMLS,OC24076014,N,Y,33.7000948,-117.7490965
PAST SALE,September-10-2021,Condo/Co-op,140 Vintage #29,Irvine,CA,92620,892000,3,3,WD - Woodbury,1792,,2004,,498,366,Sold,,,https://www.redfin.com/CA/Irvine/140-Vintage-92620/unit-29/home/7216816,CRMLS,OC21168085,N,Y,33.7003922,-117.7527943
PAST SALE,February-14-2022,Single Family Residential,5152 Citation Ave,Cypress,CA,90630,960500,4,2,80 - Cypress North of Katella,1249,6500,1963,,769,,Sold,,,https://www.redfin.com/CA/Cypress/5152-Citation-Ave-90630/home/3966106,CRMLS,OC22003321,N,Y,33.8118961,-118.0425874
PAST SALE,August-18-2023,Condo/Co-op,77 Strawflower St,Ladera Ranch,CA,92694,750000,2,2.5,LD - Ladera Ranch,1440,,2003,,521,475,Sold,,,https://www.redfin.com/CA/Ladera-Ranch/77-Strawflower-St-92694/home/5916588,CRMLS,OC23120323,N,Y,33.5482407,-117.6365452
PAST SALE,September-10-2021,Condo/Co-op,22195 Caminito Laureles #97,Laguna Hills,CA,92653,610000,3,2,S2 - Laguna Hills,1195,,1985,,510,420,Sold,,,https://www.redfin.com/CA/Laguna-Hills/22195-Caminito-Laureles-92653/unit-97/home/5634513,CRMLS,OC21166470,N,Y,33.6252817,-117.7424799
PAST SALE,January-18-2022,Condo/Co-op,20856 Serrano Creek Rd #72,Lake Forest,CA,92630,450000,2,1,LN - Lake Forest North,884,,1982,,509,400,Sold,,,https://www.redfin.com/CA/Lake-Forest/20856-Serrano-Creek-Rd-92630/unit-72/home/5743061,CRMLS,OC22003401,N,Y,33.6594411,-117.6748569
PAST SALE,August-21-2023,Single Family Residential,131 Cardinal,Irvine,CA,92618,2260000,4,4.5,GP - Great Park,2825,6542,2013,,800,235,Sold,,,https://www.redfin.com/CA/Irvine/131-Cardinal-92618/home/51682482,CRMLS,OC23140912,N,Y,33.6990596,-117.7222576
PAST SALE,March-17-2022,Single Family Residential,32931 Joel Cir,Dana Point,CA,92629,1924500,5,3.5,DH - Dana Hills,3051,11424,1984,,631,,Sold,,,https://www.redfin.com/CA/Dana-Point/32931-Joel-Cir-92629/home/4966210,CRMLS,OC22026623,N,Y,33.4847056,-117.6988553
PAST SALE,April-18-2022,Single Family Residential,8082 E Cheshire Rd,Orange,CA,92867,1365000,4,2.5,"75 - Orange, Orange Park Acres E of 55",2459,5339,2002,,555,94,Sold,,,https://www.redfin.com/CA/Orange/8082-E-Cheshire-Rd-92867/home/5853336,CRMLS,OC22051464,N,Y,33.8298754,-117.7670455
PAST SALE,August-17-2023,Single Family Residential,1210 W Park Ave,Anaheim,CA,92801,1150000,5,3.5,79 - Anaheim West of Harbor,3453,10001,1961,,333,,Sold,,,https://www.redfin.com/CA/Anaheim/1210-W-Park-Ave-92801/home/3197779,CRMLS,OC23118960,N,Y,33.840125,-117.9324525
PAST SALE,April-26-2022,Condo/Co-op,227 Mayfair,Irvine,CA,92620,1051000,2,2,STG - Stonegate,1386,,2012,,758,370,Sold,,,https://www.redfin.com/CA/Irvine/227-Mayfair-92620/home/51681305,CRMLS,OC22057031,N,Y,33.7060819,-117.7436869
PAST SALE,July-14-2022,Townhouse,15243 Cambridge St,Tustin,CA,92782,820000,2,2.5,Columbus Square,1324,,2008,,619,391,Sold,,,https://www.redfin.com/CA/Tustin/15243-Cambridge-St-92782/home/17472689,CRMLS,OC22127991,N,Y,33.7129692,-117.8194514
PAST SALE,May-3-2024,Condo/Co-op,2314 Watermarke Pl,Irvine,CA,92612,610000,1,1,Watermarke (WATR),648,,2005,,941,499,Sold,,,https://www.redfin.com/CA/Irvine/2314-Watermarke-Pl-92612/home/5980712,CRMLS,OC24071518,N,Y,33.6652848,-117.8514589
PAST SALE,September-23-2021,Condo/Co-op,97 Anacapa Ct,Lake Forest,CA,92610,703000,3,2.5,FH - Foothill Ranch,1371,,1995,,513,311,Sold,,,https://www.redfin.com/CA/Foothill-Ranch/97-Anacapa-Ct-92610/home/5248640,CRMLS,OC21181890,N,Y,33.6856663,-117.6747947
PAST SALE,October-12-2021,Single Family Residential,33 Touraine Pl,Lake Forest,CA,92610,962000,3,2.5,FH - Foothill Ranch,2030,4680,1994,,474,84,Sold,,,https://www.redfin.com/CA/Foothill-Ranch/33-Touraine-Pl-92610/home/4802433,CRMLS,OC21208809,N,Y,33.6856272,-117.6494463
PAST SALE,August-24-2021,Single Family Residential,41 Bull Run,Irvine,CA,92620,1280000,4,2.5,NW - Northwood,2166,5400,1979,,591,,Sold,,,https://www.redfin.com/CA/Irvine/41-Bull-Run-92620/home/4781124,CRMLS,SW21141447,N,Y,33.7162998,-117.769199
PAST SALE,August-24-2021,Single Family Residential,1407 E 19th St,Santa Ana,CA,92705,920000,4,2,70 - Santa Ana North of First,1788,6120,1963,,515,,Sold,,,https://www.redfin.com/CA/Santa-Ana/1407-E-19th-St-92705/home/4457331,CRMLS,OC21158070,N,Y,33.7622578,-117.8480801
PAST SALE,January-21-2022,Single Family Residential,11603 Halawa Ln,Cypress,CA,90630,1250000,5,3,56 - Cypress South of Orangewood,2557,5000,1965,,489,,Sold,,,https://www.redfin.com/CA/Cypress/11603-Halawa-Ln-90630/home/3939946,CRMLS,OC21264142,N,Y,33.7938157,-118.0153004
PAST SALE,October-23-2023,Single Family Residential,10652 Dixie Dr,Anaheim,CA,92804,860000,3,2,79 - Anaheim West of Harbor,1321,7200,1954,,651,,Sold,,,https://www.redfin.com/CA/Anaheim/10652-Dixie-Dr-92804/home/3596809,CRMLS,OC23172189,N,Y,33.8081596,-117.9615154
PAST SALE,March-8-2024,Single Family Residential,5 Burke,Irvine,CA,92620,1800000,4,3,NW - Northwood,2132,4750,1985,,844,120,Sold,,,https://www.redfin.com/CA/Irvine/5-Burke-92620/home/4783354,CRMLS,OC24016100,N,Y,33.7080205,-117.7758307
PAST SALE,April-19-2024,Condo/Co-op,7 Riverstone #84,Irvine,CA,92606,1238500,3,2.5,WN - Walnut (Irvine),1437,,1985,,862,316,Sold,,,https://www.redfin.com/CA/Irvine/7-Riverstone-92606/unit-84/home/5201786,CRMLS,OC24062717,N,Y,33.7005585,-117.7974926
PAST SALE,July-25-2022,Single Family Residential,12 Amberhill,Irvine,CA,92602,1785000,4,2.5,WI - West Irvine,2733,6989,2000,,653,139,Sold,,,https://www.redfin.com/CA/Irvine/12-Amberhill-92602/home/5768754,CRMLS,OC22132698,N,Y,33.7445777,-117.7666294
PAST SALE,November-15-2021,Condo/Co-op,205 Stellar,Irvine,CA,92618,1395000,4,3.5,GP - Great Park,2955,,2017,,472,215,Sold,,,https://www.redfin.com/CA/Irvine/205-Stellar-92618/home/167413717,CRMLS,OC21187544,N,Y,33.6825847,-117.7337247
PAST SALE,September-2-2021,Single Family Residential,605 S Gilbert St,Fullerton,CA,92833,710000,3,2,83 - Fullerton,1041,6187,1952,,682,,Sold,,,https://www.redfin.com/CA/Fullerton/605-S-Gilbert-St-92833/home/3167341,CRMLS,OC21164950,N,Y,33.8637961,-117.9683525
PAST SALE,October-18-2022,Condo/Co-op,18910 Canyon Smt #25,Lake Forest,CA,92679,588000,2,2,PH - Portola Hills,1002,,1989,,587,456,Sold,,,https://www.redfin.com/CA/Lake-Forest/18910-Canyon-Smt-92679/unit-25/home/5677412,CRMLS,OC22207412,N,Y,33.686927,-117.626865
PAST SALE,February-18-2022,Condo/Co-op,23012 Via Cereza Unit A4,Mission Viejo,CA,92691,545000,2,1,MN - Mission Viejo North,932,,1971,,585,400,Sold,,,https://www.redfin.com/CA/Mission-Viejo/23012-Via-Cereza-92691/unit-A4/home/5303329,CRMLS,OC22010961,N,Y,33.6282163,-117.6736205
PAST SALE,February-15-2022,Single Family Residential,28 Dartmouth Ln,Coto De Caza,CA,92679,1460000,4,3.5,CC - Coto De Caza,2581,8038,1997,,566,220,Sold,,,https://www.redfin.com/CA/Coto-de-Caza/28-Dartmouth-Ln-92679/home/5012655,CRMLS,OC22010429,N,Y,33.5764578,-117.5805224
PAST SALE,September-16-2021,Single Family Residential,24901 Del Monte St,Laguna Hills,CA,92653,1250000,5,3,S2 - Laguna Hills,3054,8260,1979,,409,,Sold,,,https://www.redfin.com/CA/Laguna-Hills/24901-Del-Monte-St-92653/home/4860241,CRMLS,OC21183691,N,Y,33.586005,-117.6951985
PAST SALE,July-11-2022,Single Family Residential,36 Langford,Irvine,CA,92602,1650000,4,2.5,WI - West Irvine,2733,4950,1999,,604,139,Sold,,,https://www.redfin.com/CA/Irvine/36-Langford-92602/home/5768552,CRMLS,OC22120813,N,Y,33.7433404,-117.7684502
PAST SALE,October-11-2023,Condo/Co-op,400 N Acacia Ave Unit B39,Fullerton,CA,92831,400000,1,1,83 - Fullerton,677,,1965,,591,380,Sold,,,https://www.redfin.com/CA/Fullerton/400-N-Acacia-Ave-92831/unit-B39/home/5943685,CRMLS,OC23167328,N,Y,33.8733777,-117.8978686
PAST SALE,January-18-2022,Single Family Residential,640 S Broadview St,Anaheim,CA,92804,772500,3,2,79 - Anaheim West of Harbor,1316,6060,1956,,587,,Sold,,,https://www.redfin.com/CA/Anaheim/640-S-Broadview-St-92804/home/3604015,CRMLS,OC21254096,N,Y,33.823473,-117.948206
PAST SALE,September-13-2021,Condo/Co-op,657 S Kroeger St,Anaheim,CA,92805,820000,4,4.5,78 - Anaheim East of Harbor,1970,,2009,,416,237,Sold,,,https://www.redfin.com/CA/Anaheim/657-S-Kroeger-St-92805/home/28932954,CRMLS,OC21175799,N,Y,33.8294537,-117.9059304
PAST SALE,February-28-2023,Single Family Residential,143 Cardinal,Irvine,CA,92618,2015000,4,3.5,GP - Great Park,2599,6400,2013,,775,225,Sold,,,https://www.redfin.com/CA/Irvine/143-Cardinal-92618/home/51682993,CRMLS,OC23011967,N,Y,33.6982487,-117.7230367
PAST SALE,February-22-2022,Single Family Residential,5211 Marcella Ave,Cypress,CA,90630,950000,3,1.5,80 - Cypress North of Katella,1370,6000,1963,,693,,Sold,,,https://www.redfin.com/CA/Cypress/5211-Marcella-Ave-90630/home/3970235,CRMLS,OC22011821,N,Y,33.8144598,-118.0417547
PAST SALE,May-28-2024,Single Family Residential,128 W Knepp Ave,Fullerton,CA,92832,820000,2,1,Other (OTHR),1065,5175,1946,,770,,Sold,,,https://www.redfin.com/CA/Fullerton/128-W-Knepp-Ave-92832/home/3183566,CRMLS,IV24081168,N,Y,33.8624327,-117.9255914
PAST SALE,August-20-2021,Single Family Residential,6151 Leyte St,Cypress,CA,90630,1100000,6,3,56 - Cypress South of Orangewood,2718,5200,1971,,405,,Sold,,,https://www.redfin.com/CA/Cypress/6151-Leyte-St-90630/home/3942387,CRMLS,OC21149484,N,Y,33.7947601,-118.025333
PAST SALE,April-10-2023,Condo/Co-op,12 Crestline #109,Irvine,CA,92602,936000,3,2.5,WI - West Irvine,1368,,2001,,684,283,Sold,,,https://www.redfin.com/CA/Irvine/12-Crestline-92602/unit-109/home/5917140,CRMLS,OC23031064,N,Y,33.7296356,-117.7799429
PAST SALE,December-10-2021,Condo/Co-op,22 Liana Pl,Aliso Viejo,CA,92656,710000,2,2,AV - Aliso Viejo,1063,,1990,,668,377,Sold,,,https://www.redfin.com/CA/Aliso-Viejo/22-Liana-Pl-92656/home/5256561,CRMLS,OC21240624,N,Y,33.5757489,-117.7206302
PAST SALE,April-19-2022,Townhouse,18 Anacapa Ct,Lake Forest,CA,92610,700000,2,2.5,FH - Foothill Ranch,1222,,1995,,573,329,Sold,,,https://www.redfin.com/CA/Lake-Forest/18-Anacapa-Ct-92610/home/5248222,CRMLS,OC22061360,N,Y,33.6869851,-117.6756364
PAST SALE,May-18-2023,Condo/Co-op,24 Chaumont,Mission Viejo,CA,92692,880000,3,2.5,MS - Mission Viejo South,1559,,1996,,564,456,Sold,,,https://www.redfin.com/CA/Mission-Viejo/24-Chaumont-92692/home/5662361,CRMLS,OC23073909,N,Y,33.590665,-117.647931
PAST SALE,May-16-2024,Single Family Residential,1 Windsor,Irvine,CA,92620,2900000,4,3,Greenfield (GR),2939,7769,1986,,987,,Sold,,,https://www.redfin.com/CA/Irvine/1-Windsor-92620/home/4783192,CRMLS,OC24065870,N,Y,33.7109357,-117.7715678
PAST SALE,April-28-2023,Single Family Residential,2308 W Huntington Ave,Anaheim,CA,92801,845000,3,2,79 - Anaheim West of Harbor,1236,7000,1955,,684,,Sold,,,https://www.redfin.com/CA/Anaheim/2308-W-Huntington-Ave-92801/home/3320441,CRMLS,OC23045589,N,Y,33.8508103,-117.964013
PAST SALE,April-11-2024,Condo/Co-op,1620 S Pomona Ave Unit C20,Fullerton,CA,92832,595000,4,2,83 - Fullerton,1433,,1963,,415,350,Sold,,,https://www.redfin.com/CA/Fullerton/1620-S-Pomona-Ave-92832/unit-C20/home/5373123,CRMLS,SB24039961,N,Y,33.8547166,-117.9218575
PAST SALE,April-27-2022,Condo/Co-op,25214 Tanoak Ln,Lake Forest,CA,92630,690000,2,2,LN - Lake Forest North,1207,,1986,,572,328,Sold,,,https://www.redfin.com/CA/Lake-Forest/25214-Tanoak-Ln-92630/home/5744091,CRMLS,OC22063901,N,Y,33.6539838,-117.6896861
PAST SALE,September-26-2023,Condo/Co-op,20702 El Toro Rd #237,Lake Forest,CA,92630,450000,1,1,LN - Lake Forest North,686,,1980,,656,376,Sold,,,https://www.redfin.com/CA/Lake-Forest/20702-El-Toro-Rd-92630/unit-237/home/5653870,CRMLS,OC23140921,N,Y,33.6604215,-117.6484274
PAST SALE,December-6-2021,Single Family Residential,5 W Avenida Junipero,San Clemente,CA,92672,990000,2,2,SE - San Clemente Southeast,1218,5000,1965,,813,,Sold,,,https://www.redfin.com/CA/San-Clemente/5-W-Avenida-Junipero-92672/home/4996568,CRMLS,OC21241406,N,Y,33.4151444,-117.601563
PAST SALE,October-29-2021,Condo/Co-op,1140 Jewett Dr,Fullerton,CA,92833,792000,3,3,83 - Fullerton,1695,,2003,,467,408,Sold,,,https://www.redfin.com/CA/Fullerton/1140-Jewett-Dr-92833/home/5947063,CRMLS,BB21208002,N,Y,33.8821601,-117.965286
PAST SALE,July-29-2022,Condo/Co-op,45 Willowgrove,Irvine,CA,92604,1290000,3,2.5,WB - Woodbridge,1813,,1978,,712,406,Sold,,,https://www.redfin.com/CA/Irvine/45-Willowgrove-92604/home/5533609,CRMLS,OC22135553,N,Y,33.6818612,-117.7882472
PAST SALE,February-14-2024,Single Family Residential,4361 Larwin Ave,Cypress,CA,90630,750000,3,2,80 - Cypress North of Katella,1056,1807,1966,,710,265,Sold,,,https://www.redfin.com/CA/Cypress/4361-Larwin-Ave-90630/home/3972882,CRMLS,OC24010090,N,Y,33.8166922,-118.0565945
PAST SALE,February-14-2024,Single Family Residential,2149 S Anchor St,Anaheim,CA,92802,950000,4,2,78 - Anaheim East of Harbor,1669,5500,1968,,569,,Sold,,,https://www.redfin.com/CA/Anaheim/2149-S-Anchor-St-92802/home/3689450,CRMLS,OC24003765,N,Y,33.7943206,-117.8985816
PAST SALE,December-16-2021,Single Family Residential,2289 De Sutter Dr,Tustin,CA,92782,1175000,4,3,89 - Tustin Ranch,1769,4088,1998,,664,186,Sold,,,https://www.redfin.com/CA/Tustin/2289-De-Sutter-Dr-92782/home/4776412,CRMLS,OC21244487,N,Y,33.7708335,-117.7609556
PAST SALE,October-28-2021,Single Family Residential,10836 La Batista Ave,Fountain Valley,CA,92708,1199000,4,2,16 - Fountain Valley / Northeast HB,2027,5050,1967,,592,70,Sold,,,https://www.redfin.com/CA/Fountain-Valley/10836-La-Batista-Ave-92708/home/3866759,CRMLS,OC21190674,N,Y,33.7114605,-117.9394202
PAST SALE,August-5-2021,Condo/Co-op,2233 Martin #315,Irvine,CA,92612,545000,1,1,AA - Airport Area,952,,1990,,572,475,Sold,,,https://www.redfin.com/CA/Irvine/2233-Martin-92612/unit-315/home/5554470,CRMLS,OC21136036,N,Y,33.673367,-117.8595773
PAST SALE,September-5-2023,Single Family Residential,16670 Compass Cir,Yorba Linda,CA,92886,2150000,4,3.5,85 - Yorba Linda,3227,19340,2000,,666,,Sold,,,https://www.redfin.com/CA/Yorba-Linda/16670-Compass-Cir-92886/home/5806077,CRMLS,OC23134505,N,Y,33.8989321,-117.8441783
PAST SALE,December-1-2021,Condo/Co-op,12 Snapdragon #22,Irvine,CA,92604,882000,3,2.5,EC - El Camino Real,1645,,1975,,536,455,Sold,,,https://www.redfin.com/CA/Irvine/12-Snapdragon-92604/unit-22/home/5444155,CRMLS,OC21232745,N,Y,33.6923641,-117.7867881
PAST SALE,November-13-2023,Single Family Residential,11883 Sungrove Cir,Garden Grove,CA,92840,677000,3,2.5,"72 - Orange & Garden Grove, E of Harbor, N of 22 F",1320,1557,1965,,513,250,Sold,,,https://www.redfin.com/CA/Garden-Grove/11883-Sungrove-Cir-92840/home/3959082,CRMLS,OC23182049,N,Y,33.7903507,-117.9092712
PAST SALE,February-14-2024,Single Family Residential,185 Osage,Irvine,CA,92618,2800000,4,3,GP - Great Park,2494,8462,2013,,1123,235,Sold,,,https://www.redfin.com/CA/Irvine/185-Osage-92618/home/51682791,CRMLS,OC24013333,N,Y,33.6978245,-117.7294015
PAST SALE,December-20-2021,Condo/Co-op,26063 Serrano Ct #122,Lake Forest,CA,92630,423000,2,1,LS - Lake Forest South,884,,1982,,479,375,Sold,,,https://www.redfin.com/CA/Lake-Forest/26063-Serrano-Ct-92630/unit-122/home/5743380,CRMLS,OC21244528,N,Y,33.6594625,-117.6755906
PAST SALE,April-3-2024,Single Family Residential,34745 Calle Fortuna,Dana Point,CA,92624,1610000,3,2,CB - Capistrano Beach,1474,6292,1962,,1092,,Sold,,,https://www.redfin.com/CA/Capistrano-Beach/34745-Calle-Fortuna-92624/home/3570672,CRMLS,OC24044262,N,Y,33.4580893,-117.6653061
PAST SALE,November-22-2021,Single Family Residential,416 E Elm St,Brea,CA,92821,885000,3,2,86 - Brea,1547,9750,1966,,572,,Sold,,,https://www.redfin.com/CA/Brea/416-E-Elm-St-92821/home/4084458,CRMLS,OC21225538,N,Y,33.9114066,-117.8983298
PAST SALE,March-19-2024,Single Family Residential,3671 Provincetown Ave,Irvine,CA,92606,1919800,5,3,WN - Walnut (Irvine),2666,5600,1970,,720,65,Sold,,,https://www.redfin.com/CA/Irvine/3671-Provincetown-Ave-92606/home/4664258,CRMLS,OC24031981,N,Y,33.7091608,-117.7907838
PAST SALE,December-28-2021,Single Family Residential,25542 Terreno Dr,Mission Viejo,CA,92691,1225000,3,2,MS - Mission Viejo South,1841,6600,1967,,665,21,Sold,,,https://www.redfin.com/CA/Mission-Viejo/25542-Terreno-Dr-92691/home/5038897,CRMLS,OC21256666,N,Y,33.5921505,-117.6617929
PAST SALE,April-4-2022,Condo/Co-op,2425 Scholarship,Irvine,CA,92612,790000,2,2,AA - Airport Area,1282,,2005,,616,510,Sold,,,https://www.redfin.com/CA/Irvine/2425-Scholarship-92612/home/12248605,CRMLS,OC22043964,N,Y,33.6668988,-117.8518144
PAST SALE,October-30-2023,Condo/Co-op,23 Amador Way,Aliso Viejo,CA,92656,951000,3,2.5,AV - Aliso Viejo,1496,,1998,,636,188,Sold,,,https://www.redfin.com/CA/Aliso-Viejo/23-Amador-Way-92656/home/5601392,CRMLS,OC23189703,N,Y,33.5806884,-117.7357826
PAST SALE,June-24-2024,Condo/Co-op,141 Topaz #17,Irvine,CA,92602,1171000,3,2.5,Mandeville (MAND),1473,,2001,,795,300,Sold,,,https://www.redfin.com/CA/Irvine/141-Topaz-92602/unit-17/home/5885002,CRMLS,OC24102439,N,Y,33.7299624,-117.777781
PAST SALE,June-15-2023,Condo/Co-op,25185 Via Terracina,Laguna Niguel,CA,92677,700000,2,2,LNLAK - Lake Area,1113,,1989,,629,395,Sold,,,https://www.redfin.com/CA/Laguna-Niguel/25185-Via-Terracina-92677/home/5698774,CRMLS,OC23088860,N,Y,33.5559393,-117.6903571
PAST SALE,April-4-2022,Single Family Residential,9 Capistrano,Irvine,CA,92602,1450000,3,2.5,NK - Northpark,1759,3976,2002,,824,140,Sold,,,https://www.redfin.com/CA/Irvine/9-Capistrano-92602/home/5857344,CRMLS,OC22029028,N,Y,33.7239566,-117.7762183
PAST SALE,June-21-2024,Townhouse,222 monroe #82,Irvine,CA,92620,1240000,3,2.5,Fairmont (FAIR),1411,,1985,,879,250,Sold,,,https://www.redfin.com/CA/Irvine/222-Monroe-92620/unit-82/home/5321918,CRMLS,OC24096852,N,Y,33.7044869,-117.7756616
PAST SALE,May-24-2022,Single Family Residential,5 Sunny Slope,Rancho Santa Margarita,CA,92688,1300000,5,3.5,LF - Las Flores,2208,4662,1995,,589,137,Sold,,,https://www.redfin.com/CA/Rancho-Santa-Margarita/5-Sunny-Slope-92688/home/5026454,CRMLS,OC22072622,N,Y,33.5908499,-117.6229577
PAST SALE,February-28-2022,Single Family Residential,909 Tracie Dr,Brea,CA,92821,825000,3,2,86 - Brea,1884,8470,1963,,438,,Sold,,,https://www.redfin.com/CA/Brea/909-Tracie-Dr-92821/home/4137383,CRMLS,OC22025035,N,Y,33.9333598,-117.9119952
PAST SALE,October-22-2021,Condo/Co-op,140 E Yale #23,Irvine,CA,92604,1175000,3,2.5,WB - Woodbridge,2197,,1979,,535,493,Sold,,,https://www.redfin.com/CA/Irvine/140-E-Yale-Loop-92604/unit-23/home/5544736,CRMLS,OC21202657,N,Y,33.6758629,-117.7873614
PAST SALE,April-19-2022,Single Family Residential,126 Natal Rd,Rancho Mission Viejo,CA,92694,980000,3,2.5,ESEN - Esencia,1872,1872,2018,,524,298,Sold,,,https://www.redfin.com/CA/Rancho-Mission-Viejo/126-Natal-Rd-92694/home/169484128,CRMLS,OC22039371,N,Y,33.5466463,-117.6000734
PAST SALE,February-10-2022,Single Family Residential,12 Kingfisher Ct,Trabuco Canyon,CA,92679,1505000,5,2.5,WW - Wagon Wheel,3067,7405,1998,,491,178,Sold,,,https://www.redfin.com/CA/Trabuco-Canyon/12-Kingfisher-Ct-92679/home/5024684,CRMLS,OC22006422,N,Y,33.585761,-117.5974336
PAST SALE,May-15-2024,Single Family Residential,1707 S Heritage Cir,Anaheim,CA,92804,676000,2,1.5,Heritage Village Townhomes (HRVT),1248,1817,1973,,542,440,Sold,,,https://www.redfin.com/CA/Anaheim/1707-S-Heritage-Cir-92804/home/3610436,CRMLS,OC24071550,N,Y,33.8052251,-117.9492673
PAST SALE,February-10-2022,Single Family Residential,8 Calle Rienda,Rancho Santa Margarita,CA,92688,930000,3,2,R2 - Rancho Santa Margarita Central,1272,4000,1986,,731,71,Sold,,,https://www.redfin.com/CA/Rancho-Santa-Margarita/8-Calle-Rienda-92688/home/5092853,CRMLS,OC21269841,N,Y,33.6455559,-117.5828101
PAST SALE,March-23-2022,Single Family Residential,911 S Brianna Way,Anaheim Hills,CA,92808,1218000,3,2.5,77 - Anaheim Hills,1738,3654,1997,,701,85,Sold,,,https://www.redfin.com/CA/Anaheim/911-S-Brianna-Way-92808/home/4305655,CRMLS,OC22032055,N,Y,33.85325,-117.7473241
PAST SALE,April-21-2023,Single Family Residential,1524 Kroeger Ave,Fullerton,CA,92831,1200000,3,3,83 - Fullerton,2371,19000,1964,,506,,Sold,,,https://www.redfin.com/CA/Fullerton/1524-Kroeger-Ave-92831/home/3161657,CRMLS,OC23035775,N,Y,33.8867808,-117.9093151
PAST SALE,April-5-2022,Single Family Residential,27565 Vista De Dons,Dana Point,CA,92624,1855000,3,3,CB - Capistrano Beach,1921,5750,1980,,966,,Sold,,,https://www.redfin.com/CA/Dana-Point/27565-Vista-de-Dons-92624/home/5001803,CRMLS,OC22034098,N,Y,33.448441,-117.6501848
PAST SALE,March-10-2022,Townhouse,11054 Maple St #6,Los Alamitos,CA,90720,850000,3,2.5,52 - Los Alamitos,1709,1000,2004,,497,240,Sold,,,https://www.redfin.com/CA/Los-Alamitos/11054-Maple-St-90720/unit-6/home/5983717,CRMLS,OC22021071,N,Y,33.8023479,-118.0651856
PAST SALE,February-16-2024,Single Family Residential,10607 Asbury Ave,Stanton,CA,90680,970000,3,2,"61 - N of Gar Grv, S Of Ball, E of Knott, W of Dal",1603,6000,1960,,605,,Sold,,,https://www.redfin.com/CA/Stanton/10607-Asbury-Ave-90680/home/3352778,CRMLS,OC24015767,N,Y,33.8080913,-118.0048716
PAST SALE,May-8-2023,Condo/Co-op,66 Costero Aisle #307,Irvine,CA,92614,635000,1,1,WP - Westpark,899,,1987,,706,322,Sold,,,https://www.redfin.com/CA/Irvine/66-Costero-Aisle-92614/unit-307/home/5589176,CRMLS,OC23050712,N,Y,33.682056,-117.8304917
PAST SALE,February-16-2022,Condo/Co-op,136 Bloomfield Ln,Rancho Santa Margarita,CA,92688,847000,3,2.5,LF - Las Flores,1253,,1999,,676,266,Sold,,,https://www.redfin.com/CA/Rancho-Santa-Margarita/136-Bloomfield-Ln-92688/home/5798702,CRMLS,OC22013940,N,Y,33.58225,-117.6254992
PAST SALE,November-30-2021,Condo/Co-op,116 Via Athena,Aliso Viejo,CA,92656,777000,2,2.5,AV - Aliso Viejo,1260,,1989,,617,367,Sold,,,https://www.redfin.com/CA/Aliso-Viejo/116-Via-Athena-92656/home/5451881,CRMLS,OC21231168,N,Y,33.5978085,-117.7212102
PAST SALE,June-20-2024,Single Family Residential,1975 Devonshire Dr,Brea,CA,92821,1305000,4,3,Other (OTHR),2245,6825,1969,,581,70,Sold,,,https://www.redfin.com/CA/Brea/1975-Devonshire-Dr-92821/home/4150422,CRMLS,OC24101481,N,Y,33.9117003,-117.8744972
PAST SALE,March-28-2022,Single Family Residential,3203 Oaklawn Dr,Anaheim,CA,92804,940000,4,2,"61 - N of Gar Grv, S Of Ball, E of Knott, W of Dal",2036,7644,1956,,462,,Sold,,,https://www.redfin.com/CA/Anaheim/3203-W-Oaklawn-Dr-92804/home/3350147,CRMLS,OC22052000,N,Y,33.8149836,-118.0023046
PAST SALE,July-29-2021,Condo/Co-op,63 Three Vines Ct,Ladera Ranch,CA,92694,766000,3,2.5,LD - Ladera Ranch,1620,,2000,,473,503,Sold,,,https://www.redfin.com/CA/Ladera-Ranch/63-Three-Vines-Ct-92694/home/5839319,CRMLS,OC21130514,N,Y,33.5597207,-117.6344695
PAST SALE,May-26-2023,Single Family Residential,161 Cloudbreak,Irvine,CA,92618,1839800,3,2,GP - Great Park,1746,9796,2014,,1054,235,Sold,,,https://www.redfin.com/CA/Irvine/161-Cloudbreak-92618/home/51682648,CRMLS,OC23064237,N,Y,33.7000338,-117.726685
PAST SALE,October-12-2021,Condo/Co-op,68 Glen Arbor #113,Irvine,CA,92602,815000,2,2.5,WI - West Irvine,1211,,2001,,673,200,Sold,,,https://www.redfin.com/CA/Irvine/68-Glen-Arbor-92602/unit-113/home/5884633,CRMLS,OC21189899,N,Y,33.7322888,-117.7760053
PAST SALE,March-6-2024,Single Family Residential,6091 Atlas Dr,Huntington Beach,CA,92647,1100000,4,2,17 - Northwest Huntington Beach,1583,7178,1967,,695,,Sold,,,https://www.redfin.com/CA/Huntington-Beach/6091-Atlas-Dr-92647/home/3754113,CRMLS,OC24017044,N,Y,33.7441378,-118.0226129
PAST SALE,August-17-2021,Condo/Co-op,153 Acuna,Irvine,CA,92620,1135000,3,2.5,EASTW - Eastwood,1632,,2017,,695,303,Sold,,,https://www.redfin.com/CA/Irvine/153-Acuna-92620/home/167403797,CRMLS,OC21166333,N,Y,33.7091276,-117.7501125
PAST SALE,May-16-2022,Single Family Residential,29081 Canyon Vista Dr,Lake Forest,CA,92679,1386000,5,3,PH - Portola Hills,3208,7200,1987,,432,144,Sold,,,https://www.redfin.com/CA/Trabuco-Canyon/29081-Canyon-Vista-Dr-92679/home/4804680,CRMLS,OC22069407,N,Y,33.6801682,-117.6233833
PAST SALE,September-2-2022,Single Family Residential,7051 E Shorecrest Dr,Anaheim Hills,CA,92807,949998,3,2,77 - Anaheim Hills,1560,3800,1975,,609,209,Sold,,,https://www.redfin.com/CA/Anaheim/7051-E-Shorecrest-Dr-92807/home/4335432,CRMLS,BB22159061,N,Y,33.8390914,-117.7474266
PAST SALE,November-28-2023,Townhouse,132 Neptune,Irvine,CA,92618,916000,2,2.5,PS - Portola Springs,1798,,2015,,509,423,Sold,,,https://www.redfin.com/CA/Irvine/132-Neptune-92618/home/112728025,CRMLS,OC23189253,N,Y,33.698649,-117.73215
PAST SALE,May-5-2023,Single Family Residential,22471 Silver Spur,Lake Forest,CA,92630,960000,3,2,LS - Lake Forest South,1249,6180,1975,,769,106,Sold,,,https://www.redfin.com/CA/Lake-Forest/22471-Silver-Spur-92630/home/4823806,CRMLS,OC23043072,N,Y,33.6368955,-117.6844817
PAST SALE,July-11-2022,Condo/Co-op,25605 Paseo La Vis #83,Laguna Niguel,CA,92677,670000,2,1.5,LNSEA - Sea Country,1232,,1984,,544,486,Sold,,,https://www.redfin.com/CA/Laguna-Niguel/25605-Paseo-La-Vis-92677/unit-83/home/5235843,CRMLS,OC22119512,N,Y,33.5463956,-117.6831009
PAST SALE,May-10-2022,Single Family Residential,2985 Schwendeman Ave,Tustin,CA,92782,1800000,4,2.5,89 - Tustin Ranch,2438,4884,1999,,738,138,Sold,,,https://www.redfin.com/CA/Tustin/2985-Schwendeman-Ave-92782/home/4764546,CRMLS,OC22078739,N,Y,33.7495446,-117.7671376
PAST SALE,August-31-2023,Condo/Co-op,24 Villa Point Dr,Newport Beach,CA,92660,1100000,2,2,NV - East Bluff - Harbor View,1190,,1990,,924,595,Sold,,,https://www.redfin.com/CA/Newport-Beach/24-Villa-Point-Dr-92660/home/5723409,CRMLS,OC23131961,N,Y,33.6131184,-117.8873113
PAST SALE,November-20-2023,Single Family Residential,6842 Capstone Dr,Huntington Beach,CA,92647,1275000,4,2,15 - West Huntington Beach,1451,6435,1971,,879,,Sold,,,https://www.redfin.com/CA/Huntington-Beach/6842-Capstone-Dr-92647/home/3847421,CRMLS,OC23193382,N,Y,33.711179,-118.0085689
PAST SALE,October-7-2021,Condo/Co-op,1217 Mendez Dr,Fullerton,CA,92833,760000,3,2.5,83 - Fullerton,1502,,2003,,506,467,Sold,,,https://www.redfin.com/CA/Fullerton/1217-Mendez-Dr-92833/home/5921444,CRMLS,OC21188945,N,Y,33.8833415,-117.9649656
PAST SALE,September-11-2023,Condo/Co-op,10361 Garden Grove Blvd #18,Garden Grove,CA,92843,550000,2,2,"66 - N of Blsa, S of GGrv, E of Brookhrst, W of Ha",1154,,1990,,477,406,Sold,,,https://www.redfin.com/CA/Garden-Grove/10361-Garden-Grove-Blvd-92843/unit-18/home/5583894,CRMLS,OC23120076,N,Y,33.7746733,-117.9515942
PAST SALE,May-31-2022,Single Family Residential,28919 Serreta,Mission Viejo,CA,92692,970000,2,2,MN - Mission Viejo North,1782,7000,1997,,544,429,Sold,,,https://www.redfin.com/CA/Mission-Viejo/28919-Serreta-92692/home/5103883,CRMLS,OC22098536,N,Y,33.6510743,-117.6266939
PAST SALE,November-17-2023,Single Family Residential,6151 Palisade Dr,Huntington Beach,CA,92647,1315000,4,2.5,17 - Northwest Huntington Beach,2293,6000,1966,,573,,Sold,,,https://www.redfin.com/CA/Huntington-Beach/6151-Palisade-Dr-92647/home/3765798,CRMLS,OC23196034,N,Y,33.7265796,-118.0213525
PAST SALE,September-1-2023,Single Family Residential,2935 Cardamon Ln,Fullerton,CA,92835,1625000,3,2.5,83 - Fullerton,2688,5611,2000,,605,275,Sold,,,https://www.redfin.com/CA/Fullerton/2935-Cardamon-Ln-92835/home/5763315,CRMLS,OC23145137,N,Y,33.9065642,-117.8708845
PAST SALE,October-21-2022,Single Family Residential,9170 Pelican Ave,Fountain Valley,CA,92708,1141000,4,2,16 - Fountain Valley / Northeast HB,1378,7223,1965,,828,,Sold,,,https://www.redfin.com/CA/Fountain-Valley/9170-Pelican-Ave-92708/home/3822602,CRMLS,OC22212794,N,Y,33.6915523,-117.9686055
PAST SALE,May-3-2024,Condo/Co-op,2557 Orange Ave Unit D,Costa Mesa,CA,92627,1060000,3,2.5,Other (OTHR),1707,,1991,,621,200,Sold,,,https://www.redfin.com/CA/Costa-Mesa/2557-Orange-Ave-92627/unit-D/home/5585163,CRMLS,OC24076399,N,Y,33.6594488,-117.89513
PAST SALE,March-9-2023,Single Family Residential,10132 Phelan Dr,Villa Park,CA,92861,2400000,4,3,73 - Villa Park,3531,21000,1973,,680,,Sold,,,https://www.redfin.com/CA/Villa-Park/10132-Phelan-Dr-92861/home/4342090,CRMLS,OC23016844,N,Y,33.8149463,-117.8146927
PAST SALE,February-17-2023,Condo/Co-op,13722 Red Hill Ave #6,Tustin,CA,92780,520000,2,2,71 - Tustin,1080,,1968,,481,325,Sold,,,https://www.redfin.com/CA/Tustin/13722-Red-Hill-Ave-92780/unit-6/home/5350991,CRMLS,OC23001193,N,Y,33.7359002,-117.8112201
PAST SALE,January-24-2022,Single Family Residential,4160 N Santa Cecilia St,Orange,CA,92865,910000,3,2,"72 - Orange & Garden Grove, E of Harbor, N of 22 F",1232,7699,1963,,739,,Sold,,,https://www.redfin.com/CA/Orange/4160-N-Santa-Cecilia-St-92865/home/4318621,CRMLS,OC22001374,N,Y,33.8452792,-117.8374132
PAST SALE,May-13-2022,Single Family Residential,15381 Cottonwood Cir,Huntington Beach,CA,92647,1355000,6,3,17 - Northwest Huntington Beach,2698,5850,1979,,502,,Sold,,,https://www.redfin.com/CA/Huntington-Beach/15381-Cottonwood-Cir-92647/home/3721061,CRMLS,OC22038755,N,Y,33.7389562,-117.9945
PAST SALE,August-6-2021,Condo/Co-op,225 Wicker,Irvine,CA,92618,1215000,4,3,GP - Great Park,2164,,2013,,561,215,Sold,,,https://www.redfin.com/CA/Irvine/225-Wicker-92618/home/58557081,CRMLS,OC21135996,N,Y,33.6956273,-117.7312079
PAST SALE,June-16-2023,Single Family Residential,13871 Glenmere Dr,North Tustin,CA,92705,2260000,5,3.5,NTS - North Tustin,3421,15000,1966,,661,,Sold,,,https://www.redfin.com/CA/Santa-Ana/13871-Glenmere-Dr-92705/home/4441900,CRMLS,OC23061474,N,Y,33.7610752,-117.8011819
PAST SALE,April-22-2024,Condo/Co-op,107 Rodeo,Irvine,CA,92602,1740000,3,2.5,OH - Orchard Hills,1841,,2015,,945,405,Sold,,,https://www.redfin.com/CA/Irvine/107-Rodeo-92602/home/112720597,CRMLS,OC24019421,N,Y,33.7360402,-117.7512875
PAST SALE,August-17-2021,Condo/Co-op,192 Streamwood,Irvine,CA,92620,500000,2,1,NW - Northwood,809,,1977,,618,295,Sold,,,https://www.redfin.com/CA/Irvine/192-Streamwood-92620/home/5492892,CRMLS,OC21144160,N,Y,33.7134299,-117.7586793
PAST SALE,March-27-2023,Single Family Residential,24111 Kathy Ave,Lake Forest,CA,92630,1260000,4,3,LS - Lake Forest South,2485,6900,1980,,507,91,Sold,,,https://www.redfin.com/CA/Lake-Forest/24111-Kathy-Ave-92630/home/4829419,CRMLS,OC23040019,N,Y,33.6435166,-117.7098867
PAST SALE,November-17-2022,Condo/Co-op,25224 Birch Grove Ln #3,Lake Forest,CA,92630,587000,2,2,LN - Lake Forest North,1104,,1986,,532,332,Sold,,,https://www.redfin.com/CA/Lake-Forest/25224-Birch-Grove-Ln-92630/unit-3/home/5745295,CRMLS,OC22231764,N,Y,33.6525851,-117.6894945
PAST SALE,June-25-2024,Single Family Residential,2696 N Anchor Ave,Orange,CA,92865,980000,3,2,"72 - Orange & Garden Grove, E of Harbor, N of 22 F",1268,7000,1961,,773,,Sold,,,https://www.redfin.com/CA/Orange/2696-N-Anchor-Ave-92865/home/4355872,CRMLS,OC24112007,N,Y,33.8337966,-117.8441648
PAST SALE,June-7-2024,Single Family Residential,26237 Palisades,Mission Viejo,CA,92692,1200000,3,2.5,Greystone - Califia (GRE),1795,1904,1989,,669,473,Sold,,,https://www.redfin.com/CA/Mission-Viejo/26237-Palisades-92692/home/5034691,CRMLS,OC24102479,N,Y,33.5817849,-117.6464637
PAST SALE,July-8-2022,Condo/Co-op,19361 Cascade Dr,Lake Forest,CA,92679,820000,3,3,PH - Portola Hills,1303,,1990,,629,250,Sold,,,https://www.redfin.com/CA/Lake-Forest/19361-Cascade-Dr-92679/home/5342508,CRMLS,OC22112050,N,Y,33.6807507,-117.6349834
PAST SALE,October-18-2021,Single Family Residential,22231 Hazel,Mission Viejo,CA,92692,1600000,4,3,MN - Mission Viejo North,3474,6000,1986,,461,211,Sold,,,https://www.redfin.com/CA/Mission-Viejo/22231-Hazel-Crst-92692/home/5048686,CRMLS,OC21216876,N,Y,33.6396777,-117.6308781
PAST SALE,August-19-2021,Single Family Residential,18773 Racquet Ln,Huntington Beach,CA,92648,720000,3,2.5,699 - Not Defined,1641,1516,1979,,439,395,Sold,,,https://www.redfin.com/CA/Huntington-Beach/18773-Racquet-Ln-92648/home/3837098,CRMLS,OC21144117,N,Y,33.6900702,-117.9946728
PAST SALE,June-14-2023,Condo/Co-op,162 Palencia,Irvine,CA,92618,1489898,2,3,CV - Cypress Village,2309,3500,2018,,645,285,Sold,,,https://www.redfin.com/CA/Irvine/162-Palencia-92618/home/169482043,CRMLS,OC23091050,N,Y,33.674741,-117.75005
PAST SALE,December-2-2021,Condo/Co-op,740 S Kroeger St,Anaheim,CA,92805,735000,3,3.5,78 - Anaheim East of Harbor,1570,,2009,,468,231,Sold,,,https://www.redfin.com/CA/Anaheim/740-S-Kroeger-St-92805/home/28932154,CRMLS,OC21248983,N,Y,33.8287837,-117.905134
PAST SALE,April-9-2024,Condo/Co-op,3 Windy Hill Ln #75,Laguna Hills,CA,92653,902000,2,2.5,S2 - Laguna Hills,1204,,1986,,749,464,Sold,,,https://www.redfin.com/CA/Laguna-Hills/3-Windy-Hill-Ln-92653/unit-75/home/5693783,CRMLS,OC24057570,N,Y,33.5877402,-117.7096215
PAST SALE,April-1-2022,Single Family Residential,3 Andalusia,Rancho Santa Margarita,CA,92688,870700,3,2.5,R2 - Rancho Santa Margarita Central,1941,1154,2014,,449,220,Sold,,,https://www.redfin.com/CA/Rancho-Santa-Margarita/3-Andalusia-92688/home/51683179,CRMLS,OC22043744,N,Y,33.6361457,-117.5992283
PAST SALE,June-7-2022,Single Family Residential,211 Pineview,Irvine,CA,92620,750000,2,2.5,NW - Northwood,1204,828,1977,,623,405,Sold,,,https://www.redfin.com/CA/Irvine/211-Pineview-92620/home/4787961,CRMLS,BB22073932,N,Y,33.7150863,-117.7562307
PAST SALE,May-24-2024,Single Family Residential,17121 Granada Ln,Huntington Beach,CA,92647,1100000,4,2,Other (OTHR),1417,7300,1961,,776,,Sold,,,https://www.redfin.com/CA/Huntington-Beach/17121-Granada-Ln-92647/home/3856315,CRMLS,OC24082395,N,Y,33.7136932,-117.988062
PAST SALE,June-22-2022,Single Family Residential,33192 Santiago Dr,Dana Point,CA,92629,1525000,4,2.5,DH - Dana Hills,1932,5797,1975,,789,,Sold,,,https://www.redfin.com/CA/Dana-Point/33192-Santiago-Dr-92629/home/4965124,CRMLS,PW22105659,N,Y,33.4808369,-117.7023749
PAST SALE,August-26-2022,Condo/Co-op,1345 Cabrillo Park Dr Unit L15,Santa Ana,CA,92701,490000,2,2,70 - Santa Ana North of First,984,,1976,,498,348,Sold,,,https://www.redfin.com/CA/Santa-Ana/1345-Cabrillo-Park-Dr-92701/unit-L15/home/12257458,CRMLS,BB22146620,N,Y,33.7571087,-117.840835
PAST SALE,July-7-2022,Condo/Co-op,153 Kings Cyn,Irvine,CA,92606,1036800,3,2.5,WN - Walnut (Irvine),1868,,2001,,555,215,Sold,,,https://www.redfin.com/CA/Irvine/153-Kings-Cyn-92606/home/5887521,CRMLS,OC22136463,N,Y,33.7059855,-117.8009296
PAST SALE,January-28-2022,Single Family Residential,319 Montero St,Newport Beach,CA,92661,2425000,4,3,NP - Balboa Peninsula,1488,2100,1946,,1630,,Sold,,,https://www.redfin.com/CA/Newport-Beach/319-Montero-St-92661/home/3238250,CRMLS,OC22003396,N,Y,33.6051893,-117.9049501
PAST SALE,June-30-2023,Condo/Co-op,313 Metro Ct,Fullerton,CA,92832,750000,2,2,83 - Fullerton,1810,,2008,,414,270,Sold,,,https://www.redfin.com/CA/Fullerton/313-Metro-Ct-92832/home/21933469,CRMLS,OC23092095,N,Y,33.8680067,-117.9230266
PAST SALE,August-11-2023,Multi-Family (2-4 Unit),1640 N Gilbert St,Fullerton,CA,92833,1696075,7,5,83 - Fullerton,3583,8276,1967,,473,,Sold,,,https://www.redfin.com/CA/Fullerton/1640-N-Gilbert-St-92833/home/4097539,CRMLS,OC23131216,N,Y,33.8902769,-117.9658917
PAST SALE,,Single Family Residential,1571 Woodmont Pl,La Habra,CA,90631,1250000,4,3,,2751,7169,1967,,454,,,,,https://www.redfin.com/CA/La-Habra/1571-Woodmont-Pl-90631/home/3118460,,,N,Y,33.9119719,-117.9518327
PAST SALE,March-28-2024,Condo/Co-op,1 Beacon Way,Aliso Viejo,CA,92656,830000,2,2,AV - Aliso Viejo,1401,,2010,,592,438,Sold,,,https://www.redfin.com/CA/Aliso-Viejo/1-Beacon-Way-92656/unit-149/home/40103587,CRMLS,OC24025500,N,Y,33.5794645,-117.7273209
PAST SALE,June-16-2023,Single Family Residential,91 Plateau,Aliso Viejo,CA,92656,1250000,4,2.5,AV - Aliso Viejo,1830,4002,2001,,683,243,Sold,,,https://www.redfin.com/CA/Aliso-Viejo/91-Plateau-92656/home/4870040,CRMLS,OC23070320,N,Y,33.57225185,-117.7339311
PAST SALE,July-12-2023,Condo/Co-op,49 Montana Del Lago Dr,Rancho Santa Margarita,CA,92688,586000,2,2,R1 - Rancho Santa Margarita North,827,,1992,,709,502,Sold,,,https://www.redfin.com/CA/Rancho-Santa-Margarita/49-Montana-del-Lago-Dr-92688/home/5268612,CRMLS,OC23093678,N,Y,33.6491335,-117.5856527
PAST SALE,September-7-2021,Condo/Co-op,2129 Celeste Way,Costa Mesa,CA,92627,876000,2,3,C2 - Southwest Costa Mesa,1715,,2016,,511,127,Sold,,,https://www.redfin.com/CA/Costa-Mesa/2129-Celeste-Way-92627/home/167407615,CRMLS,OC21160300,N,Y,33.6518144,-117.9223501
PAST SALE,April-26-2024,Townhouse,6240 Seabourne Dr #43,Huntington Beach,CA,92648,1250000,3,2.5,15 - West Huntington Beach,2160,,2002,,579,635,Sold,,,https://www.redfin.com/CA/Huntington-Beach/6240-Seabourne-Dr-92648/unit-43/home/5895524,CRMLS,OC24051091,N,Y,33.6744212,-118.0208593
PAST SALE,July-25-2022,Condo/Co-op,3329 E Metcalf Cir Unit B,Orange,CA,92869,730000,2,2,"72 - Orange & Garden Grove, E of Harbor, N of 22 F",1124,,1996,,649,352,Sold,,,https://www.redfin.com/CA/Orange/3329-E-Metcalf-Cir-92869/unit-B/home/5690267,CRMLS,OC22121658,N,Y,33.7977365,-117.8176182
PAST SALE,September-12-2023,Single Family Residential,511 S Baker St,Anaheim,CA,92804,888000,3,2,699 - Not Defined,1352,7350,1955,,657,,Sold,,,https://www.redfin.com/CA/Anaheim/511-S-Baker-St-92804/home/3587475,CRMLS,OC23147194,N,Y,33.8257254,-117.9718317
PAST SALE,April-12-2022,Condo/Co-op,4851 Bishop St Unit D,Cypress,CA,90630,703777,2,2,80 - Cypress North of Katella,1042,,2009,,675,180,Sold,,,https://www.redfin.com/CA/Cypress/4851-Bishop-St-90630/unit-D/home/28930229,CRMLS,OC22033762,N,Y,33.8310938,-118.0480924
PAST SALE,July-23-2021,Condo/Co-op,43 Via Pamplona,Rancho Santa Margarita,CA,92688,449900,2,1,R2 - Rancho Santa Margarita Central,930,,1995,,484,371,Sold,,,https://www.redfin.com/CA/Rancho-Santa-Margarita/43-Via-Pamplona-92688/home/5487988,CRMLS,OC21147930,N,Y,33.6405765,-117.5897
PAST SALE,August-2-2023,Condo/Co-op,16 Empire Dr,Aliso Viejo,CA,92656,832000,2,2.5,AV - Aliso Viejo,1598,,2012,,521,448,Sold,,,https://www.redfin.com/CA/Aliso-Viejo/16-Empire-Dr-92656/home/51685162,CRMLS,OC23117577,N,Y,33.5793882,-117.7283904
PAST SALE,August-6-2021,Condo/Co-op,91 Thornhurst,Irvine,CA,92620,915500,3,3,STG - Stonegate,1614,,2013,,567,355,Sold,,,https://www.redfin.com/CA/Irvine/91-Thornhurst-92620/home/58557417,CRMLS,OC21158586,N,Y,33.7071595,-117.74981
PAST SALE,May-4-2023,Single Family Residential,26591 Cortina Dr,Mission Viejo,CA,92691,1015000,4,2,MC - Mission Viejo Central,1675,6600,1967,,606,,Sold,,,https://www.redfin.com/CA/Mission-Viejo/26591-Cortina-Dr-92691/home/5037364,CRMLS,OC23065440,N,Y,33.5936537,-117.6659801
PAST SALE,October-18-2022,Single Family Residential,41 Dartmouth Ln,Coto De Caza,CA,92679,1411000,4,3.5,CC - Coto De Caza,2584,4778,1997,,546,250,Sold,,,https://www.redfin.com/CA/Coto-de-Caza/41-Dartmouth-Ln-92679/home/5012721,CRMLS,OC22189052,N,Y,33.575588,-117.5810208
PAST SALE,January-27-2023,Single Family Residential,174 Costa Mesa,Costa Mesa,CA,92627,1515000,4,4,C5 - East Costa Mesa,1942,3412,2019,,780,,Sold,,,https://www.redfin.com/CA/Costa-Mesa/174-Costa-Mesa-St-92627/home/173430009,CRMLS,OC23001554,N,Y,33.6425982,-117.9134349
PAST SALE,September-8-2022,Single Family Residential,26531 Bridlewood Dr,Laguna Hills,CA,92653,1787500,4,3,S2 - Laguna Hills,3070,9900,1989,,582,130,Sold,,,https://www.redfin.com/CA/Laguna-Hills/26531-Bridlewood-Dr-92653/home/4865072,CRMLS,OC22179784,N,Y,33.5774234,-117.6786417
PAST SALE,June-11-2024,Condo/Co-op,76 Culp Ct,Buena Park,CA,90621,865000,4,2.5,Other (OTHR),1877,,2010,,461,365,Sold,,,https://www.redfin.com/CA/Buena-Park/76-Culp-Ct-90621/home/40101029,CRMLS,OC24088002,N,Y,33.8756818,-117.9887901
PAST SALE,January-31-2022,Single Family Residential,3484 Wimbledon Way,Costa Mesa,CA,92626,1300000,3,2,C3 - South Coast Metro,1755,4725,1981,,741,170,Sold,,,https://www.redfin.com/CA/Costa-Mesa/3484-Wimbledon-Way-92626/home/4532198,CRMLS,OC22006566,N,Y,33.6952173,-117.9037255
PAST SALE,September-18-2023,Condo/Co-op,452 N Bloomberry Unit A,Orange,CA,92869,840000,3,2.5,"72 - Orange & Garden Grove, E of Harbor, N of 22 F",1683,,1999,,499,300,Sold,,,https://www.redfin.com/CA/Orange/452-N-Bloomberry-92869/unit-A/home/5799438,CRMLS,OC23145164,N,Y,33.7942011,-117.8188678
PAST SALE,May-1-2023,Condo/Co-op,25551 Indian Hill Ln Unit L,Laguna Hills,CA,92653,580000,2,2,S2 - Laguna Hills,1029,,1984,,564,424,Sold,,,https://www.redfin.com/CA/Laguna-Hills/25551-Indian-Hill-Ln-92653/unit-L/home/7214800,CRMLS,OC23056033,N,Y,33.5910131,-117.7093897
PAST SALE,July-15-2022,Single Family Residential,2582 N Skytop Ct,Orange,CA,92867,1475000,4,2.5,"75 - Orange, Orange Park Acres E of 55",2557,11385,2002,,577,94,Sold,,,https://www.redfin.com/CA/Orange/2582-N-Skytop-Ct-92867/home/5853678,CRMLS,OC22137235,N,Y,33.8316311,-117.7729724
PAST SALE,July-24-2023,Single Family Residential,766 Casner Way,Brea,CA,92821,1130000,4,4,86 - Brea,2661,4650,2004,,425,155,Sold,,,https://www.redfin.com/CA/Brea/766-Casner-Way-92821/home/5922130,CRMLS,OC23103903,N,Y,33.9322143,-117.9081248
PAST SALE,January-14-2022,Single Family Residential,8400 E Foothill St,Anaheim Hills,CA,92808,1040000,4,2,77 - Anaheim Hills,2018,7800,1984,,515,72,Sold,,,https://www.redfin.com/CA/Anaheim/8400-E-Foothill-St-92808/home/4290032,CRMLS,OC21258180,N,Y,33.8650202,-117.7380016
PAST SALE,April-11-2022,Single Family Residential,6643 E San Marcos Ct,Orange,CA,92867,1525000,4,3,"72 - Orange & Garden Grove, E of Harbor, N of 22 F",3211,5376,2001,,475,94,Sold,,,https://www.redfin.com/CA/Orange/6643-E-San-Marcos-Ct-92867/home/5764141,CRMLS,OC22046337,N,Y,33.8273073,-117.7828975
PAST SALE,October-18-2021,Condo/Co-op,20171 Sealpoint Ln #107,Huntington Beach,CA,92646,690000,2,2,14 - South Huntington Beach,1174,,1999,,588,682,Sold,,,https://www.redfin.com/CA/Huntington-Beach/20171-Sealpoint-Ln-92646/unit-107/home/5794714,CRMLS,OC21218725,N,Y,33.6698505,-117.9866505
PAST SALE,May-16-2022,Single Family Residential,130 Lilac Ln,Brea,CA,92823,1411500,4,3,86 - Brea,2522,14700,1969,,560,,Sold,,,https://www.redfin.com/CA/Brea/130-Lilac-Ln-92823/home/4141619,CRMLS,OC22078992,N,Y,33.9282049,-117.8057037
PAST SALE,December-27-2021,Single Family Residential,16 Barnes Rd,Tustin,CA,92782,1485000,4,3,71 - Tustin,2429,5421,2015,,611,290,Sold,,,https://www.redfin.com/CA/Tustin/16-Barnes-Rd-92782/home/105485734,CRMLS,OC21262413,N,Y,33.7007663,-117.8179883
PAST SALE,April-4-2024,Condo/Co-op,24057 Vista Corona,Dana Point,CA,92629,725000,2,2,Dana Point,844,,1974,,859,691,Sold,,,https://www.redfin.com/CA/Dana-Point/24057-Vista-Corona-92629/home/5411163,SDMLS,240003997,N,Y,33.4759699,-117.705383
PAST SALE,April-4-2022,Condo/Co-op,26176 Sanz Unit C,Mission Viejo,CA,92691,395500,1,1,MN - Mission Viejo North,473,,1985,,836,407,Sold,,,https://www.redfin.com/CA/Mission-Viejo/26176-Sanz-92691/unit-C/home/5304547,CRMLS,OC22053410,N,Y,33.6228708,-117.6733694
PAST SALE,March-10-2023,Single Family Residential,3710 W Kingsway Ave,Anaheim,CA,92804,768000,3,1.5,79 - Anaheim West of Harbor,1032,6045,1960,,744,,Sold,,,https://www.redfin.com/CA/Anaheim/3710-W-Kingsway-Ave-92804/home/3666253,CRMLS,OC23020661,N,Y,33.8119023,-118.0166632
PAST SALE,April-28-2022,Condo/Co-op,16 Southside Ct,Aliso Viejo,CA,92656,865000,3,2.5,AV - Aliso Viejo,1318,,1995,,656,167,Sold,,,https://www.redfin.com/CA/Aliso-Viejo/16-Southside-Ct-92656/home/5612253,CRMLS,OC22063309,N,Y,33.566534,-117.7346401
PAST SALE,April-12-2022,Single Family Residential,277 Radial,Irvine,CA,92618,2200000,5,5,GP - Great Park,2925,5112,2016,,752,215,Sold,,,https://www.redfin.com/CA/Irvine/277-Radial-92618/home/105486647,CRMLS,OC22057464,N,Y,33.6901521,-117.7297089
PAST SALE,July-19-2023,Single Family Residential,5742 Furnace Creek Rd,Yorba Linda,CA,92886,1025000,3,2,85 - Yorba Linda,1505,8100,1972,,681,,Sold,,,https://www.redfin.com/CA/Yorba-Linda/5742-Furnace-Creek-Rd-92886/home/4252306,CRMLS,OC23103602,N,Y,33.8777392,-117.7850264
PAST SALE,October-20-2023,Single Family Residential,5275 Lynridge Dr,Yorba Linda,CA,92886,1130000,4,2,85 - Yorba Linda,2074,10250,1968,,545,,Sold,,,https://www.redfin.com/CA/Yorba-Linda/5275-Lynridge-Dr-92886/home/4245411,CRMLS,OC23176335,N,Y,33.8847494,-117.7909861
PAST SALE,April-24-2023,Condo/Co-op,35 Peony,Irvine,CA,92618,988000,2,2.5,WD - Woodbury,1665,,2010,,593,467,Sold,,,https://www.redfin.com/CA/Irvine/35-Peony-92618/home/40078339,CRMLS,OC23054805,N,Y,33.6873629,-117.7469262
PAST SALE,September-9-2022,Single Family Residential,5575 Camino Famosa,Yorba Linda,CA,92887,1285000,4,3,85 - Yorba Linda,2203,7500,1986,,583,,Sold,,,https://www.redfin.com/CA/Yorba-Linda/5575-Camino-Famosa-92887/home/4283498,CRMLS,OC22173012,N,Y,33.8768159,-117.7206458
PAST SALE,December-8-2021,Condo/Co-op,1541 E La Palma Ave Unit 36-G4,Anaheim,CA,92805,415000,2,1,78 - Anaheim East of Harbor,976,,1962,,425,240,Sold,,,https://www.redfin.com/CA/Anaheim/1541-E-La-Palma-Ave-92805/unit-36-G4/home/177201084,CRMLS,OC21246102,N,Y,33.8482496,-117.8963699
PAST SALE,December-7-2023,Townhouse,6263 Pacific Pointe Dr,Huntington Beach,CA,92648,1450000,3,2.5,15 - West Huntington Beach,2361,,2003,,614,645,Sold,,,https://www.redfin.com/CA/Huntington-Beach/6263-Pacific-Pointe-Dr-92648/home/5895467,CRMLS,OC23190989,N,Y,33.6747281,-118.020439
PAST SALE,May-20-2022,Single Family Residential,11411 S Church St,Orange,CA,92869,920000,3,2,"72 - Orange & Garden Grove, E of Harbor, N of 22 F",1232,6650,1962,,747,,Sold,,,https://www.redfin.com/CA/Orange/11411-S-Church-St-92869/home/3411273,CRMLS,OC22065282,N,Y,33.7960684,-117.8071005
PAST SALE,September-23-2021,Condo/Co-op,2403 Watermarke Pl,Irvine,CA,92612,535000,1,1,AA - Airport Area,746,,2003,,717,367,Sold,,,https://www.redfin.com/CA/Irvine/2403-Watermarke-Pl-92612/home/5952845,CRMLS,OC21188436,N,Y,33.6653306,-117.8513908
PAST SALE,March-28-2024,Single Family Residential,24046 Salero Ln,Mission Viejo,CA,92691,1130000,3,2,MC - Mission Viejo Central,1320,7320,1967,,856,28,Sold,,,https://www.redfin.com/CA/Mission-Viejo/24046-Salero-Ln-92691/home/5077888,CRMLS,OC24041704,N,Y,33.6136417,-117.6710929
PAST SALE,July-31-2023,Townhouse,129 Strawflower St,Ladera Ranch,CA,92694,835000,3,2.5,LD - Ladera Ranch,1530,,2003,,546,516,Sold,,,https://www.redfin.com/CA/Ladera-Ranch/129-Strawflower-St-92694/home/5916649,CRMLS,OC23123752,N,Y,33.54764996,-117.6362495
PAST SALE,March-13-2024,Townhouse,7961 Moonmist Cir #116,Huntington Beach,CA,92648,1285000,3,2.5,15 - West Huntington Beach,1664,,1980,,772,500,Sold,,,https://www.redfin.com/CA/Huntington-Beach/7961-Moonmist-Cir-92648/unit-116/home/5555642,CRMLS,OC24032257,N,Y,33.6550146,-117.9891184
PAST SALE,March-18-2024,Single Family Residential,24360 Via Lomas De Yorba E,Yorba Linda,CA,92887,1593000,4,2.5,85 - Yorba Linda,2421,10200,1990,,658,,Sold,,,https://www.redfin.com/CA/Yorba-Linda/24360-De-Yorba-92887/home/4286491,CRMLS,OC24037598,N,Y,33.8846893,-117.7266019
PAST SALE,April-2-2024,Condo/Co-op,17 Granville St #57,Ladera Ranch,CA,92694,830000,2,2.5,LD - Ladera Ranch,1557,,2002,,533,592,Sold,,,https://www.redfin.com/CA/Mission-Viejo/17-Granville-St-92694/unit-57/home/5883746,CRMLS,OC24036726,N,Y,33.5630945,-117.633619
PAST SALE,January-3-2022,Single Family Residential,8245 Graham,Buena Park,CA,90621,660000,4,2.5,82 - Buena Park,1560,1308,1964,,423,230,Sold,,,https://www.redfin.com/CA/Buena-Park/8245-Graham-Grn-90621/home/3286747,CRMLS,OC21256661,N,Y,33.8881341,-117.9898072
PAST SALE,March-16-2022,Single Family Residential,3012 Lime Ave,Fullerton,CA,92835,1080000,3,2,83 - Fullerton,1712,11100,1963,,631,,Sold,,,https://www.redfin.com/CA/Fullerton/3012-Lime-Ave-92835/home/4086874,CRMLS,OC22027935,N,Y,33.9047934,-117.8927899
PAST SALE,April-19-2023,Single Family Residential,522 S Rosewood Ave,Santa Ana,CA,92703,770000,3,1,70 - Santa Ana North of First,1116,8400,1950,,690,,Sold,,,https://www.redfin.com/CA/Santa-Ana/522-S-Rosewood-Ave-92703/home/3066046,CRMLS,OC23050093,N,Y,33.7400767,-117.8820898
PAST SALE,August-16-2022,Condo/Co-op,47 Morena #41,Irvine,CA,92612,820000,2,1.5,SJ - Rancho San Joaquin,1145,,1977,,716,480,Sold,,,https://www.redfin.com/CA/Irvine/47-Morena-92612/unit-41/home/5496299,CRMLS,OC22146657,N,Y,33.665337,-117.8299267
PAST SALE,December-27-2021,Condo/Co-op,23400 Dover Ln #101,Yorba Linda,CA,92887,545000,2,2,85 - Yorba Linda,1010,,1986,,540,468,Sold,,,https://www.redfin.com/CA/Yorba-Linda/23400-Dover-Ln-92887/unit-101/home/5532089,CRMLS,OC21256812,N,Y,33.8718903,-117.7250666
PAST SALE,July-27-2021,Single Family Residential,7622 10th St,Buena Park,CA,90621,625000,2,2,82 - Buena Park,1050,5000,1916,,595,,Sold,,,https://www.redfin.com/CA/Buena-Park/7622-10th-St-90621/home/5923922,CRMLS,OC21136420,N,Y,33.8633116,-118.0004489
PAST SALE,June-21-2024,Condo/Co-op,160 Hayden Way,Brea,CA,92821,715000,2,2.5,Other (OTHR),1302,,2002,,549,335,Sold,,,https://www.redfin.com/CA/Brea/160-Hayden-Way-92821/home/5895365,CRMLS,OC24090611,N,Y,33.9313272,-117.8950868
PAST SALE,November-18-2021,Condo/Co-op,111 Landroute,Irvine,CA,92618,1388000,3,3.5,PS - Portola Springs,1849,,2020,,751,248,Sold,,,https://www.redfin.com/CA/Irvine/111-Landroute-92618/home/176723520,CRMLS,OC21227150,N,Y,33.68979464,-117.7042083
PAST SALE,February-7-2024,Single Family Residential,2531 N La Colina,Orange,CA,92867,2750000,5,5.5,"75 - Orange, Orange Park Acres E of 55",4425,11316,2020,,621,405,Sold,,,https://www.redfin.com/CA/Orange/2531-N-La-Colina-Ct-92867/home/167270689,CRMLS,OC23217675,N,Y,33.8309052,-117.824529
PAST SALE,April-3-2024,Single Family Residential,6122 Winslow Dr,Huntington Beach,CA,92647,1120000,4,2,17 - Northwest Huntington Beach,1434,6000,1963,,781,,Sold,,,https://www.redfin.com/CA/Huntington-Beach/6122-Winslow-Dr-92647/home/3753372,CRMLS,OC24032271,N,Y,33.7357996,-118.0218428
PAST SALE,July-21-2021,Townhouse,2114 Flame Flower Ln,Fullerton,CA,92833,720000,3,2.5,83 - Fullerton,1491,,1990,,483,215,Sold,,,https://www.redfin.com/CA/Fullerton/2114-Flame-Flower-Ln-92833/home/5364227,CRMLS,OC21135449,N,Y,33.8967918,-117.9825227
PAST SALE,October-6-2022,Single Family Residential,2254 Tamarac Ln,Tustin,CA,92780,632000,2,2,71 - Tustin,1054,1967,1974,,600,187,Sold,,,https://www.redfin.com/CA/Tustin/2254-Tamarac-Ln-92780/home/4619419,CRMLS,OC22199849,N,Y,33.724736,-117.807453
PAST SALE,May-26-2022,Condo/Co-op,140 Stellar,Irvine,CA,92618,1300000,3,3.5,GP - Great Park,2260,,2017,,575,432,Sold,,,https://www.redfin.com/CA/Irvine/140-Stellar-92618/home/167413781,CRMLS,OC22080820,N,Y,33.6830656,-117.7371356
PAST SALE,March-6-2024,Condo/Co-op,98 Greenfield #95,Irvine,CA,92614,792000,2,2,WB - Woodbridge,1159,,1982,,683,694,Sold,,,https://www.redfin.com/CA/Irvine/98-Greenfield-92614/unit-95/home/5573657,CRMLS,OC24031076,N,Y,33.6785823,-117.8103903
PAST SALE,June-12-2024,Single Family Residential,4323 E Kirkwood Ave,Orange,CA,92869,1350000,4,2.5,Other (OTHR),2209,8000,1962,,611,,Sold,,,https://www.redfin.com/CA/Orange/4323-E-Kirkwood-Ave-92869/home/4426007,CRMLS,OC24092134,N,Y,33.77527,-117.8069658
PAST SALE,November-19-2021,Condo/Co-op,26701 Quail #268,Laguna Hills,CA,92656,435000,1,1,S2 - Laguna Hills,824,,1980,,528,438,Sold,,,https://www.redfin.com/CA/Laguna-Hills/26701-Quail-Crk-92656/unit-268/home/5598977,CRMLS,OC21232593,N,Y,33.57359,-117.702799
PAST SALE,June-10-2024,Single Family Residential,32974 Paseo Miraflores,San Juan Capistrano,CA,92675,1220000,3,1.5,Mariner Village (MVL),1467,4221,1975,,832,20,Sold,,,https://www.redfin.com/CA/San-Juan-Capistrano/32974-Paseo-Miraflores-92675/home/4951077,CRMLS,OC24100752,N,Y,33.4842369,-117.6827448
PAST SALE,May-11-2023,Single Family Residential,1331 Ironwood St,La Habra,CA,90631,1020000,4,2,87 - La Habra,2215,6000,1963,,460,,Sold,,,https://www.redfin.com/CA/La-Habra/1331-Ironwood-St-90631/home/4107493,CRMLS,OC23061233,N,Y,33.915097,-117.9425319
PAST SALE,April-18-2022,Single Family Residential,820 Ethelinda Way,Brea,CA,92821,1240000,4,3,86 - Brea,2211,9156,1981,,561,130,Sold,,,https://www.redfin.com/CA/Brea/820-Ethelinda-Way-92821/home/4139284,CRMLS,OC22049651,N,Y,33.9419605,-117.909202
PAST SALE,February-13-2024,Single Family Residential,29 Laurelwood,Irvine,CA,92620,2240000,5,4,NW - Northwood,2835,4409,1997,,790,262,Sold,,,https://www.redfin.com/CA/Irvine/29-Laurelwood-92620/home/4790268,CRMLS,OC24003112,N,Y,33.7245292,-117.7641545
PAST SALE,June-7-2023,Condo/Co-op,482 N Castletown Unit D,Orange,CA,92869,826000,3,2.5,"72 - Orange & Garden Grove, E of Harbor, N of 22 F",1683,,1999,,491,300,Sold,,,https://www.redfin.com/CA/Orange/482-N-Castletown-92869/unit-D/home/5799385,CRMLS,OC23073679,N,Y,33.7945533,-117.8189899
PAST SALE,June-20-2023,Townhouse,173 Admiral Way,Costa Mesa,CA,92627,925000,2,2.5,C5 - East Costa Mesa,1722,1897,1981,,537,400,Sold,,,https://www.redfin.com/CA/Costa-Mesa/173-Admiral-Way-92627/home/4637706,CRMLS,OC23046431,N,Y,33.657593,-117.897904
PAST SALE,December-10-2021,Multi-Family (2-4 Unit),326 S Orange Ave,Brea,CA,92821,1165000,5,2.5,86 - Brea,2250,6970,1929,,518,,Sold,,,https://www.redfin.com/CA/Brea/326-S-Orange-Ave-92821/home/4082092,CRMLS,BB21226504,N,Y,33.9150816,-117.8993654
PAST SALE,June-21-2023,Single Family Residential,12291 Haster St,Garden Grove,CA,92840,835000,3,2,"63 - Garden Grove S of Chapman, W of Euclid",1233,7211,1954,,677,,Sold,,,https://www.redfin.com/CA/Garden-Grove/12291-Haster-St-92840/home/3956998,CRMLS,OC23078662,N,Y,33.7845321,-117.9064585
PAST SALE,May-15-2023,Single Family Residential,22875 Gretta St,Lake Forest,CA,92630,875000,2,1,LS - Lake Forest South,945,4802,1973,,926,,Sold,,,https://www.redfin.com/CA/Lake-Forest/22875-Gretta-St-92630/home/4837575,CRMLS,OC23058798,N,Y,33.6300997,-117.7143471
PAST SALE,October-13-2021,Single Family Residential,21 Los Pioneros,Rancho Santa Margarita,CA,92688,800000,2,2,R1 - Rancho Santa Margarita North,1139,4500,1987,,702,71,Sold,,,https://www.redfin.com/CA/Rancho-Santa-Margarita/21-Los-Pioneros-92688/home/5093919,CRMLS,OC21197267,N,Y,33.6516361,-117.5942859
PAST SALE,September-8-2022,Condo/Co-op,26901 Poppy Pl,Mission Viejo,CA,92692,755000,3,2.5,MS - Mission Viejo South,1200,,1990,,629,355,Sold,,,https://www.redfin.com/CA/Mission-Viejo/26901-Poppy-Pl-92692/home/5314842,CRMLS,OC22164114,N,Y,33.5722595,-117.6508568
PAST SALE,May-25-2022,Single Family Residential,21026 Primrose Ln,Mission Viejo,CA,92691,980000,3,2.5,MN - Mission Viejo North,1584,4500,1984,,619,156,Sold,,,https://www.redfin.com/CA/Mission-Viejo/21026-Primrose-Ln-92691/home/5114377,CRMLS,OC22080047,N,Y,33.657742,-117.6455839
PAST SALE,November-3-2021,Condo/Co-op,7205 Apricot Dr #7205,Irvine,CA,92618,515000,2,2,OT - Orangetree,916,351965,1979,,562,488,Sold,,,https://www.redfin.com/CA/Irvine/7205-Apricot-Dr-92618/unit-7205/home/5260030,CRMLS,OC21207055,N,Y,33.6704725,-117.7761276
PAST SALE,February-13-2024,Condo/Co-op,79 Rue Du Chateau #14,Aliso Viejo,CA,92656,1010000,3,2.5,699 - Not Defined,1392,,1999,,726,193,Sold,,,https://www.redfin.com/CA/Aliso-Viejo/79-Rue-du-Chateau-92656/unit-14/home/5799585,CRMLS,OC24001734,N,Y,33.557414,-117.729132
PAST SALE,October-27-2021,Single Family Residential,631 S Pathfinder,Anaheim Hills,CA,92807,1750000,4,3.5,77 - Anaheim Hills,2941,15744,1981,,595,183,Sold,,,https://www.redfin.com/CA/Anaheim/631-S-Pathfinder-Trl-92807/home/4331848,CRMLS,OC21221867,N,Y,33.841019,-117.7837404
PAST SALE,May-25-2022,Condo/Co-op,34 Sablewood Cir,Ladera Ranch,CA,92694,1000000,3,2.5,LD - Ladera Ranch,1980,,2005,,505,461,Sold,,,https://www.redfin.com/CA/Ladera-Ranch/34-Sablewood-Cir-92694/home/5977847,CRMLS,OC22080743,N,Y,33.546688,-117.6445455
PAST SALE,August-23-2021,Single Family Residential,24812 Via San Marco,Aliso Viejo,CA,92656,596000,3,2,AV - Aliso Viejo,1240,2447,1971,,481,435,Sold,,,https://www.redfin.com/CA/Aliso-Viejo/24812-Via-San-Marco-92656/home/4849595,CRMLS,OC21152916,N,Y,33.6018781,-117.7214063
PAST SALE,April-7-2023,Single Family Residential,11462 Earlham St,Orange,CA,92869,899000,4,2,"75 - Orange, Orange Park Acres E of 55",1344,6650,1961,,669,,Sold,,,https://www.redfin.com/CA/Orange/11462-Earlham-St-92869/home/3411265,CRMLS,OC23044643,N,Y,33.7953544,-117.8076497
PAST SALE,April-1-2022,Condo/Co-op,15210 Fairfax Way,Tustin,CA,92782,910000,3,3,Columbus Square,1675,,2007,,543,298,Sold,,,https://www.redfin.com/CA/Tustin/15210-Fairfax-Way-92782/home/12257314,CRMLS,OC22046584,N,Y,33.7139211,-117.8207205
PAST SALE,November-23-2022,Condo/Co-op,3500 S Greenville St Unit G8,Santa Ana,CA,92704,535000,2,2,69 - Santa Ana South of First,907,,1998,,590,503,Sold,,,https://www.redfin.com/CA/Santa-Ana/3500-S-Greenville-St-92704/unit-G8/home/5472325,CRMLS,OC22227606,N,Y,33.7009726,-117.9052417
PAST SALE,June-30-2021,Condo/Co-op,1718 Shady Brook Dr #7,Fullerton,CA,92831,440000,1,1,83 - Fullerton,779,779,1979,,565,325,Sold,,,https://www.redfin.com/CA/Fullerton/1718-Shady-Brook-Dr-92831/unit-7/home/5523553,CRMLS,OC21119731,N,Y,33.887005,-117.91844
PAST SALE,July-26-2022,Condo/Co-op,18942 Canyon View Dr,Lake Forest,CA,92679,544900,2,1.5,PH - Portola Hills,954,,1986,,571,426,Sold,,,https://www.redfin.com/CA/Trabuco-Canyon/18942-Canyon-View-Dr-92679/home/179499095,CRMLS,OC22135659,N,Y,33.6869356,-117.6261691
PAST SALE,March-10-2022,Single Family Residential,8222 Crown Ct,Westminster,CA,92683,1150000,3,2.5,59 - Westminster North of 405 & Westminster,1941,6200,1980,,592,,Sold,,,https://www.redfin.com/CA/Westminster/8222-Crown-Ct-92683/home/3517989,CRMLS,OC22032018,N,Y,33.7308407,-117.9855667
PAST SALE,March-17-2022,Single Family Residential,358 Trabuco Canyon Way,Brea,CA,92821,1370000,5,3,86 - Brea,2972,5760,1980,,461,,Sold,,,https://www.redfin.com/CA/Brea/358-Trabuco-Canyon-Way-92821/home/4140644,CRMLS,OC22029128,N,Y,33.9337551,-117.8905225
PAST SALE,July-1-2022,Condo/Co-op,92 Pamplona,Aliso Viejo,CA,92656,785000,2,2,AV - Aliso Viejo,1300,,1992,,604,350,Sold,,,https://www.redfin.com/CA/Aliso-Viejo/92-Pamplona-92656/home/5254362,CRMLS,OC22122955,N,Y,33.5608117,-117.7229394
PAST SALE,June-13-2022,Single Family Residential,14212 Saarinen Ct,Irvine,CA,92606,1450000,4,2.5,WN - Walnut (Irvine),2060,5800,1974,,704,65,Sold,,,https://www.redfin.com/CA/Irvine/14212-Saarinen-Ct-92606/home/4672562,CRMLS,OC22103923,N,Y,33.7090989,-117.7860553
PAST SALE,July-23-2021,Single Family Residential,12452 La Linda Cir,Garden Grove,CA,92841,870000,4,2,"63 - Garden Grove S of Chapman, W of Euclid",1759,5050,1977,,495,,Sold,,,https://www.redfin.com/CA/Garden-Grove/12452-La-Linda-Cir-92841/home/3922947,CRMLS,OC21135202,N,Y,33.7816411,-117.9789023
PAST SALE,May-31-2022,Condo/Co-op,421 Bryson Spgs,Costa Mesa,CA,92627,500000,1,1,C4 - Central Costa Mesa,768,435,1980,,651,420,Sold,,,https://www.redfin.com/CA/Costa-Mesa/421-Bryson-Spgs-92627/home/5593584,CRMLS,OC22083942,N,Y,33.6535296,-117.9169638
PAST SALE,July-12-2023,Condo/Co-op,20251 Cape Coral Ln #112,Huntington Beach,CA,92646,645000,2,2,14 - South Huntington Beach,1059,,1983,,609,653,Sold,,,https://www.redfin.com/CA/Huntington-Beach/20251-Cape-Coral-Ln-92646/unit-112/home/5946594,CRMLS,OC23089704,N,Y,33.6686866,-117.9873738
PAST SALE,July-12-2021,Single Family Residential,2344 E Locust Ave,Orange,CA,92867,845000,3,2,"72 - Orange & Garden Grove, E of Harbor, N of 22 F",1353,7035,1956,,625,,Sold,,,https://www.redfin.com/CA/Orange/2344-E-Locust-Ave-92867/home/4374353,CRMLS,OC21122362,N,Y,33.803614,-117.8281178
PAST SALE,April-6-2022,Single Family Residential,26246 Solrio,Mission Viejo,CA,92692,865000,2,2.5,MC - Mission Viejo Central,1473,1972,1991,,587,463,Sold,,,https://www.redfin.com/CA/Mission-Viejo/26246-Solrio-92692/home/5034681,CRMLS,OC22045269,N,Y,33.581626,-117.6469294
PAST SALE,April-10-2024,Condo/Co-op,29 Willow Wind,Aliso Viejo,CA,92656,962000,3,2.5,AV - Aliso Viejo,1499,,1994,,642,347,Sold,,,https://www.redfin.com/CA/Aliso-Viejo/29-Willow-Wind-92656/home/5688911,CRMLS,OC24041450,N,Y,33.5839054,-117.7217365
PAST SALE,May-20-2022,Single Family Residential,5881 Kingsbriar Dr,Yorba Linda,CA,92886,1000000,3,2,85 - Yorba Linda,1366,7500,1971,,732,,Sold,,,https://www.redfin.com/CA/Yorba-Linda/5881-Kingsbriar-Dr-92886/home/4250797,CRMLS,OC22082340,N,Y,33.8762659,-117.7885608
PAST SALE,August-30-2021,Condo/Co-op,7958 E Monte Carlo Ave,Anaheim Hills,CA,92808,670000,3,3,77 - Anaheim Hills,1363,,1994,,492,297,Sold,,,https://www.redfin.com/CA/Anaheim/7958-E-Monte-Carlo-Ave-92808/home/5240794,CRMLS,OC21169038,N,Y,33.8504732,-117.7404286
PAST SALE,June-10-2022,Single Family Residential,27811 Sheffield,Mission Viejo,CA,92692,1381000,4,3,MS - Mission Viejo South,2360,5400,1984,,585,82,Sold,,,https://www.redfin.com/CA/Mission-Viejo/27811-Sheffield-92692/home/5051074,CRMLS,OC22094655,N,Y,33.6000543,-117.6438708
PAST SALE,December-14-2021,Single Family Residential,2903 Penedes,San Clemente,CA,92673,1535000,3,2.5,FR - Forster Ranch,2956,8800,1992,,519,132,Sold,,,https://www.redfin.com/CA/San-Clemente/2903-Penedes-92673/home/4981831,CRMLS,OC21201099,N,Y,33.4744974,-117.6280363
PAST SALE,November-8-2021,Condo/Co-op,900 S Country Glen Way,Anaheim Hills,CA,92808,625000,2,2,77 - Anaheim Hills,1046,,1991,,598,275,Sold,,,https://www.redfin.com/CA/Anaheim/900-S-Country-Glen-Way-92808/home/5230197,CRMLS,OC21216617,N,Y,33.8555989,-117.7274439
PAST SALE,June-21-2024,Single Family Residential,2079 Perkins St,Fullerton,CA,92833,2330000,5,4.5,Marston (MARS),4123,6500,2003,,565,200,Sold,,,https://www.redfin.com/CA/Fullerton/2079-Perkins-St-92833/home/5897430,CRMLS,OC24086604,N,Y,33.8866072,-117.9590731
PAST SALE,January-28-2022,Single Family Residential,4 Bisquine St,Laguna Niguel,CA,92677,1330000,3,2.5,LNSLT - Salt Creek,1733,3500,1984,,767,212,Sold,,,https://www.redfin.com/CA/Laguna-Niguel/4-Bisquine-St-92677/home/4912074,CRMLS,OC22002697,N,Y,33.4973845,-117.7074375
PAST SALE,November-9-2021,Single Family Residential,1125 S Rita Way,Santa Ana,CA,92704,623800,3,2,699 - Not Defined,1044,6630,1958,,598,,Sold,,,https://www.redfin.com/CA/Santa-Ana/1125-S-Rita-Way-92704/home/3536646,CRMLS,OC21226167,N,Y,33.7323662,-117.8894331
PAST SALE,August-11-2023,Single Family Residential,310 N Dexford Dr,La Habra,CA,90631,801000,4,2,87 - La Habra,1280,6000,1955,,626,,Sold,,,https://www.redfin.com/CA/La-Habra/310-N-Dexford-Dr-90631/home/3108726,CRMLS,PW23120400,N,Y,33.9340738,-117.9725213
PAST SALE,March-29-2022,Single Family Residential,10 Viejo #73,Irvine,CA,92612,1060000,2,2.5,SJ - Rancho San Joaquin,1645,99999,1975,,644,539,Sold,,,https://www.redfin.com/CA/Irvine/10-Viejo-92612/unit-73/home/5441723,CRMLS,OC22025568,N,Y,33.6590966,-117.8346174
PAST SALE,November-1-2023,Condo/Co-op,2840 N Glassell St,Orange,CA,92865,750000,2,2.5,RVB - Riverbend,1198,,2020,,626,245,Sold,,,https://www.redfin.com/CA/Orange/2840-N-Glassell-St-92865/home/173437911,CRMLS,PW23165118,N,Y,33.8364152,-117.8530757
PAST SALE,May-28-2024,Single Family Residential,23 Camino Azulejo,San Clemente,CA,92673,1575000,4,3,Solana (SOLA),2145,4398,2000,,734,267,Sold,,,https://www.redfin.com/CA/San-Clemente/23-Camino-Azulejo-92673/home/5777413,CRMLS,OC24074567,N,Y,33.458824,-117.5799368
PAST SALE,May-6-2022,Single Family Residential,24461 Christina Ct,Laguna Hills,CA,92653,1377777,4,2.5,699 - Not Defined,2800,6875,1979,,492,,Sold,,,https://www.redfin.com/CA/Laguna-Hills/24461-Christina-Ct-92653/home/4848808,CRMLS,OC22052480,N,Y,33.6073509,-117.6976206
PAST SALE,September-30-2021,Condo/Co-op,62 Platinum Cir,Ladera Ranch,CA,92694,650000,2,2.5,LD - Ladera Ranch,1308,,2004,,497,448,Sold,,,https://www.redfin.com/CA/Ladera-Ranch/62-Platinum-Cir-92694/home/5951542,CRMLS,OC21199485,N,Y,33.5399164,-117.6442367
PAST SALE,May-31-2023,Single Family Residential,1916 W Beverly Dr,Orange,CA,92868,1240000,5,2.5,OTO - Old Towne Orange,2722,6298,1978,,456,,Sold,,,https://www.redfin.com/CA/Orange/1916-W-Beverly-Dr-92868/home/4407595,CRMLS,OC23071253,N,Y,33.794294,-117.8730375
PAST SALE,June-30-2021,Single Family Residential,2422 S Olive St,Santa Ana,CA,92707,715000,4,2,69 - Santa Ana South of First,1367,6000,1955,,523,,Sold,,,https://www.redfin.com/CA/Santa-Ana/2422-S-Olive-St-92707/home/3703673,CRMLS,OC21107561,N,Y,33.7133698,-117.8776324
PAST SALE,November-1-2021,Single Family Residential,10553 Maple St,Cypress,CA,90630,915000,4,2,699 - Not Defined,1480,5175,1970,,618,,Sold,,,https://www.redfin.com/CA/Cypress/10553-Maple-St-90630/home/3671652,CRMLS,OC21190676,N,Y,33.8090017,-118.0191542
PAST SALE,August-27-2021,Condo/Co-op,3316 E Lochleven Ln Unit D,Orange,CA,92869,710000,3,2.5,"75 - Orange, Orange Park Acres E of 55",1788,,1998,,397,260,Sold,,,https://www.redfin.com/CA/Orange/3316-E-Lochleven-Ln-92869/unit-D/home/5799012,CRMLS,OC21118290,N,Y,33.7916857,-117.8180069
PAST SALE,July-29-2021,Single Family Residential,134 Ruby Dr,Placentia,CA,92870,676000,2,1,84 - Placentia,1054,6955,1951,,641,,Sold,,,https://www.redfin.com/CA/Placentia/134-Ruby-Dr-92870/home/4200501,CRMLS,PW21147998,N,Y,33.8779972,-117.8703592
PAST SALE,January-26-2023,Single Family Residential,413 E Rockaway Dr,Placentia,CA,92870,999000,4,2.5,84 - Placentia,2216,4018,1990,,451,230,Sold,,,https://www.redfin.com/CA/Placentia/413-E-Rockaway-Dr-92870/home/4215860,CRMLS,OC22245305,N,Y,33.8873628,-117.8580749
PAST SALE,December-4-2023,Single Family Residential,19837 Margate Ln,Huntington Beach,CA,92646,520000,1,1,14 - South Huntington Beach,600,800,1964,,867,220,Sold,,,https://www.redfin.com/CA/Huntington-Beach/19837-Margate-Ln-92646/home/3809419,CRMLS,OC23205532,N,Y,33.6745252,-117.9515511
PAST SALE,May-17-2022,Condo/Co-op,111 Newall,Irvine,CA,92618,1420000,3,2.5,GP - Great Park,2013,,2016,,705,215,Sold,,,https://www.redfin.com/CA/Irvine/111-Newall-92618/home/143914741,CRMLS,OC22060879,N,Y,33.688994,-117.731562
PAST SALE,December-2-2021,Condo/Co-op,5 Finch,Lake Forest,CA,92630,865000,3,2.5,BK - Baker Ranch,1428,,2015,,606,351,Sold,,,https://www.redfin.com/CA/Lake-Forest/5-Finch-92630/home/112727461,CRMLS,OC21235835,N,Y,33.6763148,-117.6783312
PAST SALE,September-13-2021,Single Family Residential,3007 N Gayle St,Orange,CA,92865,930000,3,2,"72 - Orange & Garden Grove, E of Harbor, N of 22 F",1531,10400,1963,,607,,Sold,,,https://www.redfin.com/CA/Orange/3007-N-Gayle-St-92865/home/4319768,CRMLS,OC21178986,N,Y,33.83937,-117.8390196
PAST SALE,September-15-2021,Single Family Residential,17355 Summer Oak Pl,Yorba Linda,CA,92886,1033499,4,3,85 - Yorba Linda,2383,5824,1991,,434,77,Sold,,,https://www.redfin.com/CA/Yorba-Linda/17355-Summer-Oak-Pl-92886/home/4225386,CRMLS,OC21178033,N,Y,33.8751634,-117.830295
PAST SALE,March-22-2024,Condo/Co-op,5101 Tortuga Dr #109,Huntington Beach,CA,92649,450000,1,1,15 - West Huntington Beach,498,,1983,,904,445,Sold,,,https://www.redfin.com/CA/Huntington-Beach/5101-Tortuga-Dr-92649/unit-109/home/5717663,CRMLS,OC24040326,N,Y,33.7122998,-118.0396436
PAST SALE,August-4-2022,Condo/Co-op,5035 Twilight Canyon Rd Unit 31C,Yorba Linda,CA,92887,650000,3,2,85 - Yorba Linda,1456,,1994,,446,405,Sold,,,https://www.redfin.com/CA/Yorba-Linda/5035-Twilight-Canyon-Rd-92887/unit-31C/home/7212234,CRMLS,OC22144017,N,Y,33.8868639,-117.7339178
PAST SALE,May-2-2024,Single Family Residential,10178 Ascot Cir,Huntington Beach,CA,92646,530000,1,1,Huntington Bay (HBAY),600,800,1964,,883,220,Sold,,,https://www.redfin.com/CA/Huntington-Beach/10178-Ascot-Cir-92646/home/3809852,CRMLS,OC24070097,N,Y,33.6727599,-117.950867
PAST SALE,May-27-2022,Condo/Co-op,5151 Walnut Ave #2,Irvine,CA,92604,765000,2,2.5,EC - El Camino Real,1148,,1982,,666,395,Sold,,,https://www.redfin.com/CA/Irvine/5151-Walnut-Ave-92604/unit-2/home/5552659,CRMLS,OC22088369,N,Y,33.6937886,-117.7719845
PAST SALE,May-23-2022,Condo/Co-op,12611 Doral,Tustin,CA,92782,1100000,3,3,89 - Tustin Ranch,1734,,1994,,634,368,Sold,,,https://www.redfin.com/CA/Tustin/12611-Doral-92782/home/5438862,CRMLS,OC22072172,N,Y,33.7413896,-117.7896938
PAST SALE,March-2-2022,Single Family Residential,500 S Paseo De Luna,Anaheim Hills,CA,92807,1420000,4,2,77 - Anaheim Hills,1909,28750,1976,,744,,Sold,,,https://www.redfin.com/CA/Anaheim/500-S-Paseo-de-Luna-92807/home/4335904,CRMLS,OC22020242,N,Y,33.8458221,-117.7721898
PAST SALE,May-19-2022,Single Family Residential,2165 Via Teca,San Clemente,CA,92673,2000000,4,3,MH - Marblehead,2435,6000,1986,,821,271,Sold,,,https://www.redfin.com/CA/San-Clemente/2165-Via-Teca-92673/home/179501317,CRMLS,OC22075352,N,Y,33.4476247,-117.626384
PAST SALE,November-2-2021,Single Family Residential,743 Tennyson Ave,Placentia,CA,92870,900000,4,2,84 - Placentia,1480,6196,1971,,608,,Sold,,,https://www.redfin.com/CA/Placentia/743-Tennyson-Ave-92870/home/4186671,CRMLS,OC21217747,N,Y,33.8946681,-117.8513027
PAST SALE,February-4-2022,Single Family Residential,6 Edgewood,Coto De Caza,CA,92679,1650000,4,3,CC - Coto De Caza,3000,6600,1993,,550,250,Sold,,,https://www.redfin.com/CA/Coto-de-Caza/6-Edgewood-92679/home/5019804,CRMLS,OC22007539,N,Y,33.6003163,-117.5859879
PAST SALE,March-2-2022,Single Family Residential,222 17th St,Huntington Beach,CA,92648,1755000,3,3,15 - West Huntington Beach,2058,2875,1986,,853,,Sold,,,https://www.redfin.com/CA/Huntington-Beach/222-17th-St-92648/home/3132172,CRMLS,OC22013880,N,Y,33.6660865,-118.0107878
PAST SALE,April-19-2024,Condo/Co-op,16175 Dawn Way #202,Tustin,CA,92782,910000,2,2,89 - Tustin Ranch,1524,32725,2023,,597,509,Sold,,,https://www.redfin.com/CA/Tustin/16175-Dawn-Way-92782/unit-202/home/189571590,CRMLS,OC24056813,N,Y,33.7040107,-117.8309531
PAST SALE,November-24-2021,Single Family Residential,26021 Mcnatt Ct,Lake Forest,CA,92630,985000,3,2.5,LN - Lake Forest North,1564,3000,1987,,630,67,Sold,,,https://www.redfin.com/CA/Lake-Forest/26021-McNatt-Ct-92630/home/4817188,CRMLS,OC21224225,N,Y,33.6527319,-117.6769815
PAST SALE,May-31-2022,Single Family Residential,2532 W Flower Ave,Fullerton,CA,92833,780000,3,2,83 - Fullerton,1107,6058,1952,,705,,Sold,,,https://www.redfin.com/CA/Fullerton/2532-W-Flower-Ave-92833/home/3167543,CRMLS,OC22065599,N,Y,33.8629308,-117.9727129
PAST SALE,February-5-2024,Condo/Co-op,72 Brindisi,Irvine,CA,92618,1875000,3,2.5,LGA - Laguna Altura,1868,,2013,,1004,280,Sold,,,https://www.redfin.com/CA/Irvine/72-Brindisi-92618/home/58555212,CRMLS,OC23225291,N,Y,33.6477256,-117.7586656
PAST SALE,July-13-2021,Condo/Co-op,107 Dover Pl #107,Laguna Niguel,CA,92677,611000,3,2,LNSLT - Salt Creek,1206,,1985,,507,536,Sold,,,https://www.redfin.com/CA/Laguna-Niguel/107-Dover-Pl-92677/unit-107/home/5700583,CRMLS,OC21125679,N,Y,33.4959043,-117.7071485
PAST SALE,May-20-2022,Multi-Family (2-4 Unit),4251 Green Ave,Los Alamitos,CA,90720,1350000,4,3,52 - Los Alamitos,1829,9296,1960,,738,,Sold,,,https://www.redfin.com/CA/Los-Alamitos/4251-Green-Ave-90720/home/3937770,CRMLS,PW22073660,N,Y,33.8021871,-118.0584808
PAST SALE,June-29-2022,Single Family Residential,21122 Cancun,Mission Viejo,CA,92692,911000,2,3,MN - Mission Viejo North,1941,4305,1996,,469,411,Sold,,,https://www.redfin.com/CA/Mission-Viejo/21122-Cancun-92692/home/5102905,CRMLS,OC22103887,N,Y,33.6555729,-117.6335793
PAST SALE,August-5-2022,Single Family Residential,1018 N Lincoln Ave,Fullerton,CA,92831,1015000,3,2.5,83 - Fullerton,1646,7729,1955,,617,,Sold,,,https://www.redfin.com/CA/Fullerton/1018-N-Lincoln-Ave-92831/home/3158322,CRMLS,OC22123012,N,Y,33.8800472,-117.9107942
PAST SALE,June-30-2021,Single Family Residential,3016 E Walking Beam Pl,Brea,CA,92821,910000,3,2.5,86 - Brea,1827,2769,2011,,498,353,Sold,,,https://www.redfin.com/CA/Brea/3016-E-Walking-Beam-Pl-92821/home/45381452,CRMLS,OC21108439,N,Y,33.9256597,-117.8567201
PAST SALE,April-8-2024,Single Family Residential,4873 Kennedy Ln,Yorba Linda,CA,92886,1355000,4,3,85 - Yorba Linda,2261,2878,2005,,599,150,Sold,,,https://www.redfin.com/CA/Yorba-Linda/4873-Kennedy-Ln-92886/home/5950452,CRMLS,OC24046993,N,Y,33.8902539,-117.8187423
PAST SALE,March-18-2024,Single Family Residential,26831 Salazar Dr,Mission Viejo,CA,92691,1500000,5,2.5,MC - Mission Viejo Central,2882,7830,1972,,520,,Sold,,,https://www.redfin.com/CA/Mission-Viejo/26831-Salazar-Dr-92691/home/5041748,CRMLS,SR24024819,N,Y,33.6071272,-117.6621912
PAST SALE,January-6-2023,Single Family Residential,14542 Pepper Tree Cir,Tustin,CA,92780,1025000,3,2,71 - Tustin,1588,7000,1975,,645,,Sold,,,https://www.redfin.com/CA/Tustin/14542-Pepper-Tree-Cir-92780/home/4621285,CRMLS,OC22240956,N,Y,33.7201828,-117.8112521
PAST SALE,December-6-2022,Single Family Residential,650 Kinley St,La Habra,CA,90631,815000,4,2,87 - La Habra,1654,6893,1957,,493,,Sold,,,https://www.redfin.com/CA/La-Habra/650-Kinley-St-90631/home/3109043,CRMLS,OC22229269,N,Y,33.9373564,-117.9745505
PAST SALE,November-1-2022,Single Family Residential,1739 N Mountain View Pl,Fullerton,CA,92831,1000000,3,2,83 - Fullerton,1862,13275,1975,,537,105,Sold,,,https://www.redfin.com/CA/Fullerton/1739-N-Mountain-View-Pl-92831/home/4076206,CRMLS,OC22202208,N,Y,33.8881532,-117.8941986
PAST SALE,December-29-2021,Condo/Co-op,43 Avalon #73,Laguna Niguel,CA,92677,645000,2,2,LNSLT - Salt Creek,1120,,1986,,576,390,Sold,,,https://www.redfin.com/CA/Laguna-Niguel/43-Avalon-Cv-92677/unit-73/home/5309554,CRMLS,OC21250766,N,Y,33.5167875,-117.6835046
PAST SALE,September-20-2023,Condo/Co-op,2878 N Glassell St,Orange,CA,92865,711000,2,2.5,RVB - Riverbend,1174,,2020,,606,245,Sold,,,https://www.redfin.com/CA/Orange/2878-N-Glassell-St-92865/home/174117570,CRMLS,OC23156988,N,Y,33.837385,-117.8527028
PAST SALE,May-20-2024,Single Family Residential,630 Hawthorne Ave,Fullerton,CA,92833,900000,3,2,Other (OTHR),1457,6623,1957,,618,,Sold,,,https://www.redfin.com/CA/Fullerton/630-Hawthorne-Ave-92833/home/3315476,CRMLS,OC24066279,N,Y,33.8631197,-117.9600845
PAST SALE,September-16-2022,Single Family Residential,1 Orion,Irvine,CA,92603,3381000,6,5,TR - Turtle Rock,4034,8400,1985,,838,366,Sold,,,https://www.redfin.com/CA/Irvine/1-Orion-92603/home/4745551,CRMLS,OC22181540,N,Y,33.6397132,-117.8130677
PAST SALE,July-22-2021,Single Family Residential,412 Cline Ct,Placentia,CA,92870,1005000,5,3,84 - Placentia,2389,4961,2001,,421,46,Sold,,,https://www.redfin.com/CA/Placentia/412-Cline-Ct-92870/home/5807687,CRMLS,OC21128895,N,Y,33.8726424,-117.8480557
PAST SALE,August-1-2022,Single Family Residential,30 Cherokee St,Trabuco Canyon,CA,92679,1054500,4,2.5,WW - Wagon Wheel,1700,4860,1995,,620,87,Sold,,,https://www.redfin.com/CA/Trabuco-Canyon/30-Cherokee-St-92679/home/5023275,CRMLS,OC22104986,N,Y,33.5918419,-117.5950051
PAST SALE,February-1-2024,Single Family Residential,1634 W Brook St,Santa Ana,CA,92703,795000,3,1.5,699 - Not Defined,1139,6124,1956,,698,,Sold,,,https://www.redfin.com/CA/Santa-Ana/1634-W-Brook-St-92703/home/3535071,CRMLS,OC23230730,N,Y,33.735868,-117.8905565
PAST SALE,July-14-2022,Single Family Residential,1741 N Bedford Cir,Anaheim,CA,92806,920000,4,2,78 - Anaheim East of Harbor,1507,5500,1971,,610,,Sold,,,https://www.redfin.com/CA/Anaheim/1741-N-Bedford-Cir-92806/home/4207235,CRMLS,OC22121274,N,Y,33.8675184,-117.8582982
PAST SALE,,Single Family Residential,1015 W Arbor Way,Orange,CA,92868,900000,3,2,,1128,6888,1952,,798,,,,,https://www.redfin.com/CA/Orange/1015-W-Arbor-Way-92868/home/3220734,,,N,Y,33.7890891,-117.8632938
PAST SALE,April-23-2024,Single Family Residential,35 Mariner,Buena Park,CA,90621,1350000,4,2.5,82 - Buena Park,2434,4550,1999,,555,220,Sold,,,https://www.redfin.com/CA/Buena-Park/35-Mariner-Cv-90621/home/4070901,CRMLS,OC24049194,N,Y,33.8779372,-117.9770659
PAST SALE,April-17-2024,Condo/Co-op,2873 Player Ln,Tustin,CA,92782,875000,2,2.5,89 - Tustin Ranch,1170,,1998,,748,544,Sold,,,https://www.redfin.com/CA/Tustin/2873-Player-Ln-92782/home/5431224,CRMLS,OC24049269,N,Y,33.736208,-117.7821598
PAST SALE,May-25-2022,Single Family Residential,6485 E Camino Grande,Anaheim Hills,CA,92807,1437000,4,2.5,77 - Anaheim Hills,3127,7000,1981,,460,175,Sold,,,https://www.redfin.com/CA/Anaheim/6485-E-Camino-Grande-92807/home/4336769,CRMLS,OC22085313,N,Y,33.8357766,-117.7642483
PAST SALE,August-14-2023,Condo/Co-op,18163 Zion Ct,Fountain Valley,CA,92708,815000,3,2.5,16 - Fountain Valley / Northeast HB,1656,1894,1970,,492,280,Sold,,,https://www.redfin.com/CA/Fountain-Valley/18163-Zion-Ct-92708/home/3820492,CRMLS,OC23102334,N,Y,33.6994578,-117.9494353
PAST SALE,March-13-2023,Single Family Residential,113 Mangrove Banks,Irvine,CA,92620,2140000,4,4,EASTW - Eastwood,2546,3864,2016,,841,125,Sold,,,https://www.redfin.com/CA/Irvine/113-Mangrove-Banks-92620/home/112724489,CRMLS,OC23026727,N,Y,33.7139181,-117.7516936
PAST SALE,December-14-2021,Townhouse,537 W Summerfield Cir,Anaheim,CA,92802,642000,3,2.5,78 - Anaheim East of Harbor,1429,,1991,,449,340,Sold,,,https://www.redfin.com/CA/Anaheim/537-W-Summerfield-Cir-92802/home/5545025,CRMLS,PW21231217,N,Y,33.7924788,-117.9126276
PAST SALE,October-6-2023,Condo/Co-op,26176 Sanz Unit A,Mission Viejo,CA,92691,530000,2,2,MN - Mission Viejo North,693,,1985,,765,458,Sold,,,https://www.redfin.com/CA/Mission-Viejo/26176-Sanz-92691/unit-A/home/5304562,CRMLS,OC23170277,N,Y,33.6228708,-117.6733694
PAST SALE,August-8-2022,Townhouse,15500 Tustin Village Way #104,Tustin,CA,92780,550000,3,1.5,71 - Tustin,1260,630,1964,,437,290,Sold,,,https://www.redfin.com/CA/Tustin/15500-Tustin-Village-Way-92780/unit-104/home/4491156,CRMLS,OC22151591,N,Y,33.7392277,-117.8344627
PAST SALE,August-5-2021,Condo/Co-op,5590 E Vista Del Rio,Anaheim Hills,CA,92807,639000,2,2.5,77 - Anaheim Hills,1404,1537,1977,,455,353,Sold,,,https://www.redfin.com/CA/Anaheim/5590-E-Vista-del-Rio-92807/home/4330732,CRMLS,OC21146957,N,Y,33.8489234,-117.7932696
PAST SALE,March-28-2022,Single Family Residential,621 Rye Ave,La Habra,CA,90631,810000,3,2.5,87 - La Habra,1434,6160,1958,,565,,Sold,,,https://www.redfin.com/CA/La-Habra/621-Rye-Ave-90631/home/3115656,CRMLS,OC22026188,N,Y,33.9226436,-117.9524133
PAST SALE,September-20-2023,Condo/Co-op,3417 Watermarke Pl,Irvine,CA,92612,585000,1,1,AA - Airport Area,648,,2003,,903,456,Sold,,,https://www.redfin.com/CA/Irvine/3417-Watermarke-Pl-92612/home/5952711,CRMLS,OC23146230,N,Y,33.6661297,-117.8507885
PAST SALE,July-19-2021,Condo/Co-op,6324 Wisteria Dr,Westminster,CA,92683,860000,3,2.5,"60 - Westminster South of Westminster, W of Beach",1716,,2016,,501,165,Sold,,,https://www.redfin.com/CA/Westminster/6324-Wisteria-Dr-92683/home/143915962,CRMLS,OC21138710,N,Y,33.7537432,-118.0185358
PAST SALE,April-4-2022,Condo/Co-op,101 California Ct,Mission Viejo,CA,92692,635000,2,2,MN - Mission Viejo North,900,,1994,,706,405,Sold,,,https://www.redfin.com/CA/San-Juan-Capistrano/101-California-Ct-92692/home/5657191,CRMLS,OC22039172,N,Y,33.6575074,-117.6404282
PAST SALE,August-30-2023,Single Family Residential,21740 Todd Ave,Yorba Linda,CA,92887,1650000,4,3,85 - Yorba Linda,2557,10400,1987,,645,,Sold,,,https://www.redfin.com/CA/Yorba-Linda/21740-Todd-Ave-92887/home/4277853,CRMLS,OC23122020,N,Y,33.8840497,-117.753349
PAST SALE,October-30-2023,Townhouse,7140 Kelton Way,Stanton,CA,90680,630000,3,1.5,"61 - N of Gar Grv, S Of Ball, E of Knott, W of Dal",1121,1460,1971,,562,265,Sold,,,https://www.redfin.com/CA/Stanton/7140-Kelton-Way-90680/home/3639520,CRMLS,OC23165598,N,Y,33.7999336,-118.0088599
PAST SALE,February-18-2022,Condo/Co-op,85 Dogwood Ln #42,Aliso Viejo,CA,92656,590000,2,1.5,AV - Aliso Viejo,966,,1986,,611,344,Sold,,,https://www.redfin.com/CA/Aliso-Viejo/85-Dogwood-Ln-92656/unit-42/home/5739307,CRMLS,OC22007775,N,Y,33.571428,-117.710574
PAST SALE,June-29-2021,Single Family Residential,11722 Reagan St,Los Alamitos,CA,90720,1376000,3,3,699 - Not Defined,2217,8000,1964,,621,,Sold,,,https://www.redfin.com/CA/Los-Alamitos/11722-Reagan-St-90720/home/3629572,CRMLS,OC21104914,N,Y,33.7926165,-118.068943
PAST SALE,July-22-2022,Condo/Co-op,70 Bronze Leaf,Irvine,CA,92620,1020000,3,3.5,CV - Cypress Village,1541,,2015,,662,355,Sold,,,https://www.redfin.com/CA/Irvine/70-Bronze-Leaf-92620/home/112722301,CRMLS,OC22116708,N,Y,33.6812801,-117.7554378
PAST SALE,October-8-2021,Condo/Co-op,2518 N Tustin Ave Unit E,Santa Ana,CA,92705,340000,3,2.5,70 - Santa Ana North of First,1617,,1974,,210,400,Sold,,,https://www.redfin.com/CA/Santa-Ana/2518-N-Tustin-Ave-92705/unit-E/home/11902581,CRMLS,OC21188265,N,Y,33.7713355,-117.8367942
PAST SALE,December-28-2021,Single Family Residential,13372 Balos Dr,Garden Grove,CA,92844,858000,4,2,699 - Not Defined,1420,7930,1954,,604,,Sold,,,https://www.redfin.com/CA/Garden-Grove/13372-Balos-Dr-92844/home/3439099,CRMLS,OC21235871,N,Y,33.7682857,-117.9882794
PAST SALE,August-7-2023,Single Family Residential,11882 Jacalene Ln,Garden Grove,CA,92840,880000,3,2,"64 - Garden Grove E of Euclid, W of Harbor",1209,7229,1953,,728,,Sold,,,https://www.redfin.com/CA/Garden-Grove/11882-Jacalene-Ln-92840/home/3401756,CRMLS,OC23115207,N,Y,33.7902995,-117.9270741
PAST SALE,June-10-2024,Single Family Residential,21201 Ponderosa,Mission Viejo,CA,92692,1400000,3,3,Ventana (VEN),1976,4500,1987,,709,169,Sold,,,https://www.redfin.com/CA/Mission-Viejo/21201-Ponderosa-92692/home/5102176,CRMLS,OC24096788,N,Y,33.65469,-117.6404438
PAST SALE,June-6-2022,Condo/Co-op,28212 Sorrento #95,Laguna Niguel,CA,92677,650000,3,2,LNSEA - Sea Country,1131,,1984,,575,425,Sold,,,https://www.redfin.com/CA/Laguna-Niguel/28212-Sorrento-92677/unit-95/home/5684095,CRMLS,OC22092775,N,Y,33.550148,-117.677917
PAST SALE,May-2-2023,Condo/Co-op,1 Bainbridge Ct,Laguna Niguel,CA,92677,1299000,4,3.5,LNLAK - Lake Area,2486,,2006,,523,290,Sold,,,https://www.redfin.com/CA/Laguna-Niguel/1-Bainbridge-Ct-92677/home/40103872,CRMLS,OC23043767,N,Y,33.565584,-117.7001947
PAST SALE,August-23-2021,Single Family Residential,132 Main St,Ladera Ranch,CA,92694,891000,3,2.5,LD - Ladera Ranch,1800,2537,2000,,495,312,Sold,,,https://www.redfin.com/CA/Ladera-Ranch/132-Main-St-92694/home/5825759,CRMLS,OC21166390,N,Y,33.5611817,-117.633305
PAST SALE,March-13-2023,Condo/Co-op,3285 Moritz Dr #9,Huntington Beach,CA,92649,1335000,3,2.5,17 - Northwest Huntington Beach,1777,,1979,,751,613,Sold,,,https://www.redfin.com/CA/Huntington-Beach/3285-Moritz-Dr-92649/unit-9/home/5516942,CRMLS,OC23008993,N,Y,33.7251397,-118.0744684
PAST SALE,July-13-2021,Condo/Co-op,26611 El Toboso,Mission Viejo,CA,92691,745000,4,3,MS - Mission Viejo South,2230,1950,1976,,334,438,Sold,,,https://www.redfin.com/CA/Mission-Viejo/26611-El-Toboso-92691/home/5018866,CRMLS,OC21132800,N,Y,33.576366,-117.666242
PAST SALE,August-20-2021,Single Family Residential,26675 Avenida Shonto,Mission Viejo,CA,92691,840000,4,2,MS - Mission Viejo South,1463,6321,1972,,574,,Sold,,,https://www.redfin.com/CA/Mission-Viejo/26675-Avenida-Shonto-92691/home/5081600,CRMLS,OC21149330,N,Y,33.6280781,-117.6647078
PAST SALE,February-22-2024,Single Family Residential,529 Playa,Newport Beach,CA,92660,2225000,3,2.5,NV - East Bluff - Harbor View,1995,2526,1971,,1115,305,Sold,,,https://www.redfin.com/CA/Newport-Beach/529-Playa-92660/home/4644232,CRMLS,OC24013471,N,Y,33.6450084,-117.8745253
PAST SALE,August-6-2021,Condo/Co-op,21131 Knights Gln,Lake Forest,CA,92630,705000,3,2.5,LN - Lake Forest North,1266,,1987,,557,453,Sold,,,https://www.redfin.com/CA/Lake-Forest/21131-Knights-Gln-92630/home/180828512,CRMLS,OC21151558,N,Y,33.6553305,-117.6694846
PAST SALE,November-29-2021,Condo/Co-op,161 Streamwood,Irvine,CA,92620,520000,2,1,NW - Northwood,809,,1977,,643,395,Sold,,,https://www.redfin.com/CA/Irvine/161-Streamwood-92620/home/5492763,CRMLS,OC21201713,N,Y,33.7135225,-117.7590612
PAST SALE,April-5-2024,Single Family Residential,8412 Dallas Cir,Huntington Beach,CA,92646,1650000,5,3.5,14 - South Huntington Beach,2551,6000,1977,,647,,Sold,,,https://www.redfin.com/CA/Huntington-Beach/8412-Dallas-Cir-92646/home/3805971,CRMLS,OC24038315,N,Y,33.6746279,-117.9814197
PAST SALE,June-13-2022,Condo/Co-op,75 Henson,Irvine,CA,92620,1320000,3,2.5,EASTW - Eastwood,1724,,2017,,766,330,Sold,,,https://www.redfin.com/CA/Irvine/75-Henson-92620/home/167401796,CRMLS,OC22103378,N,Y,33.7137201,-117.7487752
PAST SALE,August-4-2021,Condo/Co-op,67 Origin,Irvine,CA,92618,770000,2,2,STE - Stonegate East,1178,1178,2014,,654,343,Sold,,,https://www.redfin.com/CA/Irvine/67-Origin-92618/home/112721418,CRMLS,OC21105952,N,Y,33.7003445,-117.7302849
PAST SALE,December-15-2021,Single Family Residential,11 Calle Adobe,Rancho Santa Margarita,CA,92688,975000,3,2.5,R2 - Rancho Santa Margarita Central,1660,4000,1986,,587,71,Sold,,,https://www.redfin.com/CA/Rancho-Santa-Margarita/11-Calle-Adobe-92688/home/5092837,CRMLS,OC21245385,N,Y,33.6457199,-117.5837189
PAST SALE,November-8-2021,Single Family Residential,1254 N Moraga St,Anaheim,CA,92801,805000,3,2,79 - Anaheim West of Harbor,1521,6344,1955,,529,,Sold,,,https://www.redfin.com/CA/Anaheim/1254-N-Moraga-St-92801/home/3320378,CRMLS,OC21227498,N,Y,33.8511457,-117.9649657
PAST SALE,January-10-2022,Single Family Residential,25191 Luna Bonita Dr,Laguna Hills,CA,92653,1070000,3,2,S2 - Laguna Hills,1623,6120,1978,,659,,Sold,,,https://www.redfin.com/CA/Laguna-Hills/25191-Luna-Bonita-Dr-92653/home/4858710,CRMLS,OC21261404,N,Y,33.5889137,-117.6899781
PAST SALE,March-24-2022,Townhouse,562 Glorieta,Newport Beach,CA,92660,1700000,4,3,NV - East Bluff - Harbor View,1964,1564,1968,,866,444,Sold,,,https://www.redfin.com/CA/Newport-Beach/562-Glorieta-92660/home/4643654,CRMLS,OC22025998,N,Y,33.6389878,-117.8794395